listing image,listing url,full address,zipcode,latitude,longitude
https://photos.zillowstatic.com/fp/23aacb3df5709e99d6798d54d3a178f1-p_e.jpg,https://www.zillow.com/homedetails/6225-Lawrence-Ave-E-Toronto-ON-M1C-5G4/2062402898_zpid/,"6225 Lawrence Ave E, Toronto, ON M1C 5G4",M1C5G4,43.65572,-79.45745
https://photos.zillowstatic.com/fp/1cd388cbfceb00a0f9a422d02db56744-p_e.jpg,https://www.zillow.com/homedetails/3840-Bathurst-St-702-Toronto-ON-M3H-6C6/2062400716_zpid/,"3840 Bathurst St #702, Toronto, ON M3H 6C6",M3H6C6,43.62386,-79.488945
https://photos.zillowstatic.com/fp/1f0037527b391093a7e036ca74c53f08-p_e.jpg,https://www.zillow.com/homedetails/8-Littleleaf-Dr-Toronto-ON-M1B-1Z1/2072972648_zpid/,"8 Littleleaf Dr, Toronto, ON M1B 1Z1",M1B1Z1,43.72315,-79.44823
https://photos.zillowstatic.com/fp/780ba993641794246fb4be00aa8c5b4a-p_e.jpg,https://www.zillow.com/homedetails/2301-Danforth-Ave-306-Toronto-ON-M4C-0A7/2062397058_zpid/,"2301 Danforth Ave #306, Toronto, ON M4C 0A7",M4C0A7,43.64239,-79.424736
https://photos.zillowstatic.com/fp/950875d10ea508d8a31563bf14cd388d-p_e.jpg,https://www.zillow.com/homedetails/16-Catalda-Ct-Toronto-ON-M2R-3X5/2062396705_zpid/,"16 Catalda Ct, Toronto, ON M2R 3X5",M2R3X5,43.641495,-79.41007
https://photos.zillowstatic.com/fp/e9d5059a0e53928a0c26fbb8c721df54-p_e.jpg,https://www.zillow.com/homedetails/2460-Eglinton-Ave-E-PENTHOUSE-12-Toronto-ON-M1K-5J7/2062401012_zpid/,"2460 Eglinton Ave E PENTHOUSE 12, Toronto, ON M1K 5J7",M1K5J7,43.71802,-79.376884
https://photos.zillowstatic.com/fp/738f0093a9ebd540483521254f60d911-p_e.jpg,https://www.zillow.com/homedetails/7-Brimley-Rd-S-E31-Toronto-ON-M1M-3W3/2069399915_zpid/,"7 Brimley Rd S #E31, Toronto, ON M1M 3W3",M1M3W3,43.7145,-79.45351
https://photos.zillowstatic.com/fp/f886851510b063a88922a2881f462f00-p_e.jpg,https://www.zillow.com/homedetails/17-Caddy-Dr-Toronto-ON-M1G-2E9/2062399036_zpid/,"17 Caddy Dr, Toronto, ON M1G 2E9",M1G2E9,43.641552,-79.424515
https://photos.zillowstatic.com/fp/2526282e0ca6f5d0263157790980c45b-p_e.jpg,https://www.zillow.com/homedetails/441-Jane-St-109-Toronto-ON-M6S-3Z9/2062398894_zpid/,"441 Jane St #109, Toronto, ON M6S 3Z9",M6S3Z9,43.58977,-79.54517
https://photos.zillowstatic.com/fp/79fe2faa6e0946fabe166e538e04d06d-p_e.jpg,https://www.zillow.com/homedetails/121-Forest-Heights-Blvd-Toronto-ON-M2L-2K7/2063164499_zpid/,"121 Forest Heights Blvd, Toronto, ON M2L 2K7",M2L2K7,43.78004,-79.41268
https://photos.zillowstatic.com/fp/88cb880d753ec6ed006fe0e9e8d98974-p_e.jpg,https://www.zillow.com/homedetails/371-Orton-Park-Rd-90-Toronto-ON-M1G-3V1/2063238445_zpid/,"371 Orton Park Rd #90, Toronto, ON M1G 3V1",M1G3V1,43.719334,-79.33631
https://photos.zillowstatic.com/fp/eca394ec9310846ff2c4cb87ab719adc-p_e.jpg,https://www.zillow.com/homedetails/25-Knowlton-Dr-Toronto-ON-M1M-2G8/2062396712_zpid/,"25 Knowlton Dr, Toronto, ON M1M 2G8",M1M2G8,43.764618,-79.49201
https://photos.zillowstatic.com/fp/db80a1905f6ab059195302e3e20853e1-p_e.jpg,https://www.zillow.com/homedetails/4-Princeway-Dr-Toronto-ON-M1R-2V9/2062401824_zpid/,"4 Princeway Dr, Toronto, ON M1R 2V9",M1R2V9,43.770447,-79.5201
https://photos.zillowstatic.com/fp/44b2496c25b5b0a0eb9d41488b3dd195-p_e.jpg,https://www.zillow.com/homedetails/2-Lynch-Rd-Toronto-ON-M2J-2V5/2062403181_zpid/,"2 Lynch Rd, Toronto, ON M2J 2V5",M2J2V5,43.593613,-79.535904
https://photos.zillowstatic.com/fp/a22b4f4811e428acee8b5435f54e2c08-p_e.jpg,https://www.zillow.com/homedetails/50-Sunny-Glenway-110-Toronto-ON-M3C-2Z2/2065457919_zpid/,"50 Sunny Glenway #110, Toronto, ON M3C 2Z2",M3C2Z2,43.780964,-79.24979
https://photos.zillowstatic.com/fp/b5bbda19848e563d149a4c0a059fd613-p_e.jpg,https://www.zillow.com/homedetails/68-Abell-St-720-Toronto-ON-M6J-0B1/2066645045_zpid/,"68 Abell St #720, Toronto, ON M6J 0B1",M6J0B1,43.769455,-79.51981
https://photos.zillowstatic.com/fp/112671603f5cd5cb0321d086e40194e8-p_e.jpg,https://www.zillow.com/homedetails/88-Harbour-St-2405-Toronto-ON-M5J-0C3/2078481741_zpid/,"88 Harbour St #2405, Toronto, ON M5J 0C3",M5J0C3,43.74851,-79.5059
https://photos.zillowstatic.com/fp/589ebd9063be8fcc41b612d469d7de45-p_e.jpg,https://www.zillow.com/homedetails/16-Guildpark-Ptwy-Toronto-ON-M1J-3P1/2062403177_zpid/,"16 Guildpark Ptwy, Toronto, ON M1J 3P1",M1J3P1,43.770447,-79.5201
https://photos.zillowstatic.com/fp/cc04ac4c7372b878d0c93d222d369771-p_e.jpg,https://www.zillow.com/homedetails/29-Mulock-Ave-Toronto-ON-M6N-3C3/2062396702_zpid/,"29 Mulock Ave, Toronto, ON M6N 3C3",M6N3C3,43.770447,-79.5201
https://photos.zillowstatic.com/fp/38883c57bcae3586e26edd06d926b913-p_e.jpg,https://www.zillow.com/homedetails/36-Pritchard-Ave-Toronto-ON-M6N-1T3/2062396697_zpid/,"36 Pritchard Ave, Toronto, ON M6N 1T3",M6N1T3,43.74851,-79.5059
https://photos.zillowstatic.com/fp/d458e4d93e1a3fbc1fb91b42d6e18dde-p_e.jpg,https://www.zillow.com/homedetails/53-Valley-Stream-Dr-Toronto-ON-M1V-2A4/2062396727_zpid/,"53 Valley Stream Dr, Toronto, ON M1V 2A4",M1V2A4,43.769455,-79.51981
"https://maps.googleapis.com/maps/api/staticmap?mobile=false&sensor=true&maptype=satellite&size=575x242&zoom=17&center=43.752479553222656,-79.25090026855469&key=AIzaSyBJsNQO5ZeG-XAbqqWLKwG08fWITSxg33w&signature=HLHhKd5E2JMKIBqTcZqqgAWpoZc=",https://www.zillow.com/homedetails/32-Anticosti-Dr-Toronto-ON-M1J-1V5/2062401332_zpid/,"32 Anticosti Dr, Toronto, ON M1J 1V5",M1J1V5,43.70731,-79.465744
https://photos.zillowstatic.com/fp/d7fc769922ddee938a4f08eacb39b28b-p_e.jpg,https://www.zillow.com/homedetails/111-Caroline-Ave-Toronto-ON-M4M-2X6/2062396736_zpid/,"111 Caroline Ave, Toronto, ON M4M 2X6",M4M2X6,43.643013,-79.406204
https://photos.zillowstatic.com/fp/76e7f3fc3d5e7e553ae706a075243c98-p_e.jpg,https://www.zillow.com/homedetails/30-Meadowacres-Dr-Toronto-ON-M1T-1B2/2064085794_zpid/,"30 Meadowacres Dr, Toronto, ON M1T 1B2",M1T1B2,43.64635,-79.39363
https://photos.zillowstatic.com/fp/48f71c51f0b79b1a02096a4b1880a4ba-p_e.jpg,https://www.zillow.com/homedetails/35-Mervyn-Ave-Toronto-ON-M9B-1N2/2062396694_zpid/,"35 Mervyn Ave, Toronto, ON M9B 1N2",M9B1N2,43.65096,-79.36789
https://photos.zillowstatic.com/fp/aa39dbe4f10bb80fb35ec6581d261ed8-p_e.jpg,https://www.zillow.com/homedetails/33-Tweedrock-Cres-Toronto-ON-M1E-4L4/2068556395_zpid/,"33 Tweedrock Cres, Toronto, ON M1E 4L4",M1E4L4,43.77824,-79.41777
https://photos.zillowstatic.com/fp/e607f52634a0d11b7340eddc8d668a2c-p_e.jpg,https://www.zillow.com/homedetails/103-Lynvalley-Cres-Toronto-ON-M1R-2V1/2062411655_zpid/,"103 Lynvalley Cres, Toronto, ON M1R 2V1",M1R2V1,43.648827,-79.3781
https://photos.zillowstatic.com/fp/5a85d9a17fa832a98c79b682873da8b9-p_e.jpg,https://www.zillow.com/homedetails/31-Applefield-Dr-Toronto-ON-M1P-3Y1/2062401131_zpid/,"31 Applefield Dr, Toronto, ON M1P 3Y1",M1P3Y1,43.72163,-79.543816
https://photos.zillowstatic.com/fp/aa1d3304c2172889f06f71f703777178-p_e.jpg,https://www.zillow.com/homedetails/1392-Islington-Ave-Toronto-ON-M9A-3K7/2062418128_zpid/,"1392 Islington Ave, Toronto, ON M9A 3K7",M9A3K7,43.78311,-79.41517
https://photos.zillowstatic.com/fp/cb66b1b726fd145163cae5ea9448000b-p_e.jpg,https://www.zillow.com/homedetails/116-Seaton-St-Toronto-ON-M5A-2T3/2062401976_zpid/,"116 Seaton St, Toronto, ON M5A 2T3",M5A2T3,43.77618,-79.18265
https://photos.zillowstatic.com/fp/9a1478391ad7cba29201aecde8eb1f75-p_e.jpg,https://www.zillow.com/homedetails/106-Tecumseth-St-Toronto-ON-M6J-2H1/2062396734_zpid/,"106 Tecumseth St, Toronto, ON M6J 2H1",M6J2H1,43.745888,-79.515816
https://photos.zillowstatic.com/fp/1215fc4b84ba7a9ad14ce9173547fcee-p_e.jpg,https://www.zillow.com/homedetails/8-Packard-Blvd-W-Toronto-ON-M1P-4K1/2062419874_zpid/,"8 Packard Blvd W, Toronto, ON M1P 4K1",M1P4K1,43.60879,-79.547585
https://photos.zillowstatic.com/fp/10b1d8e3997701d2e4844ffe4d593e82-p_e.jpg,https://www.zillow.com/homedetails/302-Montrose-Ave-Toronto-ON-M6G-3G8/2062411656_zpid/,"302 Montrose Ave, Toronto, ON M6G 3G8",M6G3G8,43.648827,-79.3781
https://photos.zillowstatic.com/fp/e6a0698d9e231c8d4d272ffb39087f09-p_e.jpg,https://www.zillow.com/homedetails/127-Regent-Rd-Toronto-ON-M3K-1H5/2062411626_zpid/,"127 Regent Rd, Toronto, ON M3K 1H5",M3K1H5,43.695618,-79.553856
https://photos.zillowstatic.com/fp/ebc625d24851ca7e1d1ea8cb2dd23e97-p_e.jpg,https://www.zillow.com/homedetails/138-Hatherley-Rd-Toronto-ON-M6E-1W5/2065572614_zpid/,"138 Hatherley Rd, Toronto, ON M6E 1W5",M6E1W5,43.79012,-79.3928
https://photos.zillowstatic.com/fp/6cb46cbc854225f5a5e113a3d93cd8e7-p_e.jpg,https://www.zillow.com/homedetails/1-Windal-Ave-Toronto-ON-M9N-2C2/2062411619_zpid/,"1 Windal Ave, Toronto, ON M9N 2C2",M9N2C2,43.638775,-79.41172
https://photos.zillowstatic.com/fp/5e02ee12b23590ac50e15e95b9294f6e-p_e.jpg,https://www.zillow.com/homedetails/18-Waterfield-Dr-Toronto-ON-M1P-3W5/2062396740_zpid/,"18 Waterfield Dr, Toronto, ON M1P 3W5",M1P3W5,43.648827,-79.3781
https://photos.zillowstatic.com/fp/c2b41da7d65acff2b2f4f9982862297c-p_e.jpg,https://www.zillow.com/homedetails/251-Manitoba-St-327-Toronto-ON-M8Y-0C7/2070071179_zpid/,"251 Manitoba St #327, Toronto, ON M8Y 0C7",M8Y0C7,43.59323,-79.53615
https://photos.zillowstatic.com/fp/31d4151c167ea349aa3699a1086cac11-p_e.jpg,https://www.zillow.com/homedetails/119-Curzon-St-Toronto-ON-M4M-3B3/2063050009_zpid/,"119 Curzon St, Toronto, ON M4M 3B3",M4M3B3,43.733185,-79.26924
https://photos.zillowstatic.com/fp/a32e02f327473bc28e9fd5f0347d9577-p_e.jpg,https://www.zillow.com/homedetails/35-Shadwick-Dr-Toronto-ON-M9R-2V6/2062411631_zpid/,"35 Shadwick Dr, Toronto, ON M9R 2V6",M9R2V6,43.638138,-79.420845
https://photos.zillowstatic.com/fp/da7fc5410b58a0d8fa0c0e23d691e6cd-p_e.jpg,https://www.zillow.com/homedetails/88-N-Edgely-Ave-Toronto-ON-M1K-1T7/2079918374_zpid/,"88 N Edgely Ave, Toronto, ON M1K 1T7",M1K1T7,43.77339,-79.41304
https://photos.zillowstatic.com/fp/7e911537c12d97852d290d41ef7b06c6-p_e.jpg,https://www.zillow.com/homedetails/10-Eddystone-Ave-156-Toronto-ON-M3N-2T2/2062937579_zpid/,"10 Eddystone Ave #156, Toronto, ON M3N 2T2",M3N2T2,43.711655,-79.33481
https://photos.zillowstatic.com/fp/189e3c7296db34c18b4468a888850e8f-p_e.jpg,https://www.zillow.com/homedetails/15-Stafford-St-513-Toronto-ON-M5V-3X6/2063212327_zpid/,"15 Stafford St #513, Toronto, ON M5V 3X6",M5V3X6,43.72163,-79.543816
https://photos.zillowstatic.com/fp/707a26f0f44e61238416ccf26beaf154-p_e.jpg,https://www.zillow.com/homedetails/25-Markland-Dr-Toronto-ON-M9C-1M8/2062422630_zpid/,"25 Markland Dr, Toronto, ON M9C 1M8",M9C1M8,43.63681,-79.397514
https://photos.zillowstatic.com/fp/dccada0bd738966a70768ecb48402124-p_e.jpg,https://www.zillow.com/homedetails/7-Hanson-Rd-Toronto-ON-M6E-1T2/2062779100_zpid/,"7 Hanson Rd, Toronto, ON M6E 1T2",M6E1T2,43.745888,-79.515816
https://photos.zillowstatic.com/fp/77732717d5f2d021e32c81ad0cd2a625-p_e.jpg,https://www.zillow.com/homedetails/56A-Cedar-Brae-Blvd-Toronto-ON-M1J-2K5/2062418134_zpid/,"56A Cedar Brae Blvd, Toronto, ON M1J 2K5",M1J2K5,43.63979,-79.40984
https://photos.zillowstatic.com/fp/88afea9970beb74b67c7e884ca83528d-p_e.jpg,https://www.zillow.com/homedetails/7-Brimley-Rd-S-Toronto-ON-M1M-3W3/2071802588_zpid/,"7 Brimley Rd S, Toronto, ON M1M 3W3",M1M3W3,43.661007,-79.36035
https://photos.zillowstatic.com/fp/cf7adfe8d96fc349410a3bff7a37cbbf-p_e.jpg,https://www.zillow.com/homedetails/68-Lesmount-Ave-Toronto-ON-M4J-3V6/2062411669_zpid/,"68 Lesmount Ave, Toronto, ON M4J 3V6",M4J3V6,43.71074,-79.33373
https://photos.zillowstatic.com/fp/b675aeb77c78cee8a4e73a20fec9f8e2-p_e.jpg,https://www.zillow.com/homedetails/19-Woodgarden-Cres-Toronto-ON-M1E-3K3/2062396714_zpid/,"19 Woodgarden Cres, Toronto, ON M1E 3K3",M1E3K3,43.767612,-79.512215
https://photos.zillowstatic.com/fp/a5955239f79091f0b7e72cef2aea1ff9-p_e.jpg,https://www.zillow.com/homedetails/5-Michael-Power-Pl-1406-Toronto-ON-M9A-0A3/2062398129_zpid/,"5 Michael Power Pl #1406, Toronto, ON M9A 0A3",M9A0A3,43.697975,-79.299355
https://photos.zillowstatic.com/fp/8e2d6d88cd887070ac7ed64358b48174-p_e.jpg,https://www.zillow.com/homedetails/779-Willowdale-Ave-Toronto-ON-M2N-5B5/2062401823_zpid/,"779 Willowdale Ave, Toronto, ON M2N 5B5",M2N5B5,43.643013,-79.406204
https://photos.zillowstatic.com/fp/1b61c4aee5550c5fb5caa9084d62167e-p_e.jpg,https://www.zillow.com/homedetails/6-Sonic-Way-2403-Toronto-ON-M3C-0P1/2071793132_zpid/,"6 Sonic Way #2403, Toronto, ON M3C 0P1",M3C0P1,43.766026,-79.19796
https://photos.zillowstatic.com/fp/680680c1c5bb21f2beb2479428c7bcb6-p_e.jpg,https://www.zillow.com/homedetails/53-Pitt-Ave-Toronto-ON-M1L-2R3/2086917554_zpid/,"53 Pitt Ave, Toronto, ON M1L 2R3",M1L2R3,43.652912,-79.37035
https://photos.zillowstatic.com/fp/26bdd250ef78b2c7b03d48cfc749b86c-p_e.jpg,https://www.zillow.com/homedetails/20-Thomas-Riley-Rd-1104-Toronto-ON-M9B-0C3/2062401816_zpid/,"20 Thomas Riley Rd #1104, Toronto, ON M9B 0C3",M9B0C3,43.75324,-79.49093
https://photos.zillowstatic.com/fp/3cbf7034ed8fbac3c210040043af6afd-p_e.jpg,https://www.zillow.com/homedetails/115-McMahon-Dr-1511-Toronto-ON-M2K-0E3/2062404709_zpid/,"115 McMahon Dr #1511, Toronto, ON M2K 0E3",M2K0E3,43.749504,-79.517136
https://photos.zillowstatic.com/fp/480925de2b1241b349eaff50e07b3b2d-p_e.jpg,https://www.zillow.com/homedetails/20-Sandringham-Dr-Toronto-ON-M5M-3G3/2062929800_zpid/,"20 Sandringham Dr, Toronto, ON M5M 3G3",M5M3G3,43.732376,-79.53698
https://photos.zillowstatic.com/fp/e795aad32ef99ab6758caf433d2dba61-p_e.jpg,https://www.zillow.com/homedetails/2179-Dundas-St-W-Toronto-ON-M6R-1X5/2065436531_zpid/,"2179 Dundas St W, Toronto, ON M6R 1X5",M6R1X5,43.774803,-79.33691
https://photos.zillowstatic.com/fp/9fa8941aae8ff8106b9274d58503859b-p_e.jpg,https://www.zillow.com/homedetails/21-Willowhurst-Cres-Toronto-ON-M1R-3R7/2062419562_zpid/,"21 Willowhurst Cres, Toronto, ON M1R 3R7",M1R3R7,43.68828,-79.41355
https://photos.zillowstatic.com/fp/3573d4eb853ae29ffd10a0e7e7cb8cc8-p_e.jpg,https://www.zillow.com/homedetails/50-Aileen-Ave-N-Toronto-ON-M6M-1E6/2063304643_zpid/,"50 Aileen Ave N, Toronto, ON M6M 1E6",M6M1E6,43.774033,-79.25801
https://photos.zillowstatic.com/fp/c5089529a2601f6dbfb553c4ae2e5207-p_e.jpg,https://www.zillow.com/homedetails/117-Estelle-Ave-Toronto-ON-M2N-5H6/2062412924_zpid/,"117 Estelle Ave, Toronto, ON M2N 5H6",M2N5H6,43.74747,-79.58333
https://photos.zillowstatic.com/fp/e1cda60792f1b2c6f204f5eac2264d37-p_e.jpg,https://www.zillow.com/homedetails/30-Huddleston-Ct-Toronto-ON-M1L-4L2/2062416071_zpid/,"30 Huddleston Ct, Toronto, ON M1L 4L2",M1L4L2,43.654842,-79.38468
https://photos.zillowstatic.com/fp/90e7e96e8da50988d2ac0c10519c008c-p_e.jpg,https://www.zillow.com/homedetails/5-Northtown-Way-UNIT-1102-Toronto-ON-M2N-7A1/2062396673_zpid/,"5 Northtown Way UNIT 1102, Toronto, ON M2N 7A1",M2N7A1,43.749928,-79.26863
https://photos.zillowstatic.com/fp/e6bffa69083f3c443f50cfb4d4634ecc-p_e.jpg,https://www.zillow.com/homedetails/109-Garden-Ave-Toronto-ON-M6R-1H8/2062396696_zpid/,"109 Garden Ave, Toronto, ON M6R 1H8",M6R1H8,43.72432,-79.30328
https://photos.zillowstatic.com/fp/c084c6fdc616ec91ea4cfcf4fae8c25f-p_e.jpg,https://www.zillow.com/homedetails/194-Dawlish-Ave-Toronto-ON-M4N-1H5/2062396719_zpid/,"194 Dawlish Ave, Toronto, ON M4N 1H5",M4N1H5,43.638134,-79.39147
https://photos.zillowstatic.com/fp/2306d91954f5f1182170136d06bb6417-p_e.jpg,https://www.zillow.com/homedetails/435-Richmond-St-W-207-Toronto-ON-M5V-0N3/2062396661_zpid/,"435 Richmond St W #207, Toronto, ON M5V 0N3",M5V0N3,43.79448,-79.31232
https://photos.zillowstatic.com/fp/f01d7d773ed557da5074726b011ce4a9-p_e.jpg,https://www.zillow.com/homedetails/56-Codsell-Ave-Toronto-ON-M3H-3V9/2062396737_zpid/,"56 Codsell Ave, Toronto, ON M3H 3V9",M3H3V9,43.649258,-79.37576
https://photos.zillowstatic.com/fp/778d6b856704d6e57318e7d439970b64-p_e.jpg,https://www.zillow.com/homedetails/17-Trowell-Ave-Toronto-ON-M6M-1L3/2062419875_zpid/,"17 Trowell Ave, Toronto, ON M6M 1L3",M6M1L3,43.753036,-79.48941
https://photos.zillowstatic.com/fp/a6912a9d29c42ed3d5f7cccc91da4ad1-p_e.jpg,https://www.zillow.com/homedetails/55-Centre-Ave-1103-Toronto-ON-M5G-2H5/2071840204_zpid/,"55 Centre Ave #1103, Toronto, ON M5G 2H5",M5G2H5,43.714233,-79.55794
https://photos.zillowstatic.com/fp/91723da0b68978873d49c21b5e3f4dce-p_e.jpg,https://www.zillow.com/homedetails/20-Winston-Ave-Toronto-ON-M1N-1W3/2062411664_zpid/,"20 Winston Ave, Toronto, ON M1N 1W3",M1N1W3,43.640415,-79.56309
https://photos.zillowstatic.com/fp/1291ab23141dd199cb96e359182e80a3-p_e.jpg,https://www.zillow.com/homedetails/92-Shelborne-Ave-Toronto-ON-M5N-1Z3/2062396731_zpid/,"92 Shelborne Ave, Toronto, ON M5N 1Z3",M5N1Z3,43.71093,-79.32513
https://photos.zillowstatic.com/fp/7d7b3fa70ae23242326f50b3e9efcb41-p_e.jpg,https://www.zillow.com/homedetails/43-Flagman-St-Toronto-ON-M4E-3X6/2062411677_zpid/,"43 Flagman St, Toronto, ON M4E 3X6",M4E3X6,43.637733,-79.48798
https://photos.zillowstatic.com/fp/2163e86f8f0d78a4c2e615e2e3297525-p_e.jpg,https://www.zillow.com/homedetails/52-Whitley-Ave-Toronto-ON-M3K-1A2/2062414992_zpid/,"52 Whitley Ave, Toronto, ON M3K 1A2",M3K1A2,43.681126,-79.332436
https://photos.zillowstatic.com/fp/156743545a2e0113452cefc1fec9d295-p_e.jpg,https://www.zillow.com/homedetails/17-Fordover-Dr-Toronto-ON-M1E-1T7/2065558599_zpid/,"17 Fordover Dr, Toronto, ON M1E 1T7",M1E1T7,43.654713,-79.3792
https://photos.zillowstatic.com/fp/9569da1d761e7bbb6115d43c5ecba49a-p_e.jpg,https://www.zillow.com/homedetails/957-Danforth-Rd-Toronto-ON-M1K-1J2/2062412449_zpid/,"957 Danforth Rd, Toronto, ON M1K 1J2",M1K1J2,43.73658,-79.257835
https://photos.zillowstatic.com/fp/62bcf30d87217a3f675f624bc8733f5b-p_e.jpg,https://www.zillow.com/homedetails/36-Woodrow-Ave-Toronto-ON-M4C-5S2/2062413436_zpid/,"36 Woodrow Ave, Toronto, ON M4C 5S2",M4C5S2,43.640327,-79.56238
https://photos.zillowstatic.com/fp/2d83e0e1006690e4a86d34911a48d793-p_e.jpg,https://www.zillow.com/homedetails/27-Brooklyn-Ave-Toronto-ON-M4M-2X4/2062417131_zpid/,"27 Brooklyn Ave, Toronto, ON M4M 2X4",M4M2X4,43.637733,-79.48798
https://photos.zillowstatic.com/fp/85b472630086c2bf8fbadc5c21919931-p_e.jpg,https://www.zillow.com/homedetails/18-Concorde-Pl-PENTHOUSE-3-Toronto-ON-M3C-3T9/2062396663_zpid/,"18 Concorde Pl PENTHOUSE 3, Toronto, ON M3C 3T9",M3C3T9,43.645473,-79.39232
https://photos.zillowstatic.com/fp/16224151a6b9638adfb5378a2981ba2e-p_e.jpg,https://www.zillow.com/homedetails/146-Tecumseth-St-Toronto-ON-M6J-2H4/2062410406_zpid/,"146 Tecumseth St, Toronto, ON M6J 2H4",M6J2H4,43.714245,-79.45384
https://photos.zillowstatic.com/fp/df5fffc35ae0ead98bf642fe93e54822-p_e.jpg,https://www.zillow.com/homedetails/49-Dryden-Way-Toronto-ON-M9R-0B2/2063148141_zpid/,"49 Dryden Way, Toronto, ON M9R 0B2",M9R0B2,43.634823,-79.40156
https://photos.zillowstatic.com/fp/84e6ab4865cd7d88ffd60b1f916483ef-p_e.jpg,https://www.zillow.com/homedetails/54-Glenview-Ave-Toronto-ON-M4R-1P6/2062411676_zpid/,"54 Glenview Ave, Toronto, ON M4R 1P6",M4R1P6,43.64718,-79.39106
"https://maps.googleapis.com/maps/api/staticmap?mobile=false&sensor=true&maptype=satellite&size=575x242&zoom=17&center=43.73237609863281,-79.53697967529297&key=AIzaSyBJsNQO5ZeG-XAbqqWLKwG08fWITSxg33w&signature=2dfgxtOkVCwhp0tOYT_AeZla2q4=",https://www.zillow.com/homedetails/3077-Weston-Rd-1501-Toronto-ON-M9M-3A1/2062401980_zpid/,"3077 Weston Rd #1501, Toronto, ON M9M 3A1",M9M3A1,43.640327,-79.56238
https://photos.zillowstatic.com/fp/191d9c882a964626c8d18f1c6b912c42-p_e.jpg,https://www.zillow.com/homedetails/196-Fern-Ave-Toronto-ON-M6R-1K4/2062416608_zpid/,"196 Fern Ave, Toronto, ON M6R 1K4",M6R1K4,43.797565,-79.31985
https://photos.zillowstatic.com/fp/6ff3bcc88e65e36a743b2be0fdc8458b-p_e.jpg,https://www.zillow.com/homedetails/350-Brooke-Ave-Toronto-ON-M5M-2L3/2062413858_zpid/,"350 Brooke Ave, Toronto, ON M5M 2L3",M5M2L3,43.75267,-79.5151
https://photos.zillowstatic.com/fp/ee8dcc400d46cedb01366b4ce3a01e5c-p_e.jpg,https://www.zillow.com/homedetails/490-Markham-St-Toronto-ON-M6G-2L3/2062411672_zpid/,"490 Markham St, Toronto, ON M6G 2L3",M6G2L3,43.750698,-79.46505
https://photos.zillowstatic.com/fp/6a80991829c80c1f8cc0067210dfb27c-p_e.jpg,https://www.zillow.com/homedetails/98-Kendal-Ave-Toronto-ON-M5R-1L9/2062401775_zpid/,"98 Kendal Ave, Toronto, ON M5R 1L9",M5R1L9,43.804848,-79.21674
https://photos.zillowstatic.com/fp/4ce492df505c2789a2eac017c94b231e-p_e.jpg,https://www.zillow.com/homedetails/47-Tommy-Douglas-Gdns-Toronto-ON-M6B-4N3/2062418130_zpid/,"47 Tommy Douglas Gdns, Toronto, ON M6B 4N3",M6B4N3,43.710346,-79.39317
https://photos.zillowstatic.com/fp/df0215838985c78e7d36d6ab476a4caa-p_e.jpg,https://www.zillow.com/homedetails/85-Garnier-Ct-Toronto-ON-M2M-4C8/2062443902_zpid/,"85 Garnier Ct, Toronto, ON M2M 4C8",M2M4C8,43.661106,-79.37658
https://photos.zillowstatic.com/fp/92223ec16b5c205e835f526b6f21e1d1-p_e.jpg,https://www.zillow.com/homedetails/16-Jersey-Ave-Toronto-ON-M6G-3A3/2062417255_zpid/,"16 Jersey Ave, Toronto, ON M6G 3A3",M6G3A3,43.813545,-79.32216
https://photos.zillowstatic.com/fp/fca380d5d1e00c8bdd28a80a4eb4c013-p_e.jpg,https://www.zillow.com/homedetails/24-A-Cedar-Brae-Blvd-Toronto-ON-M1J-2K3/2082902909_zpid/,"24 A Cedar Brae Blvd, Toronto, ON M1J 2K3",M1J2K3,43.73627,-79.47671
https://photos.zillowstatic.com/fp/db0c4f1dfc94b8e0db5da870087aa91e-p_e.jpg,https://www.zillow.com/homedetails/5-Greystone-Walk-Dr-906-Toronto-ON-M1K-5J5/2063346355_zpid/,"5 Greystone Walk Dr #906, Toronto, ON M1K 5J5",M1K5J5,43.72208,-79.543945
https://photos.zillowstatic.com/fp/6657a0e528cff6c51ad186d265406618-p_e.jpg,https://www.zillow.com/homedetails/625-The-West-Mall-PENTHOUSE-5-Toronto-ON-M9C-4W9/2070852607_zpid/,"625 The West Mall PENTHOUSE 5, Toronto, ON M9C 4W9",M9C4W9,43.814484,-79.325325
https://photos.zillowstatic.com/fp/5157faaa6b24bb3a44559fe26e2c5d8e-p_e.jpg,https://www.zillow.com/homedetails/214-Winona-Dr-Toronto-ON-M6C-3S2/2062416115_zpid/,"214 Winona Dr, Toronto, ON M6C 3S2",M6C3S2,43.678783,-79.49515
https://photos.zillowstatic.com/fp/5d4e37fe413bf0242d9419a1bd2fb5eb-p_e.jpg,https://www.zillow.com/homedetails/8-Delia-Ct-Toronto-ON-M3H-3G8/2062410562_zpid/,"8 Delia Ct, Toronto, ON M3H 3G8",M3H3G8,43.787228,-79.19468
https://photos.zillowstatic.com/fp/ccd72b34da141faf6bcdb1324bc99724-p_e.jpg,https://www.zillow.com/homedetails/500-Saint-Clair-Ave-W-709-Toronto-ON-M6C-1A8/2071816708_zpid/,"500 Saint Clair Ave W #709, Toronto, ON M6C 1A8",M6C1A8,43.72016,-79.33666
https://photos.zillowstatic.com/fp/29889529fd2b0328248f22bacaed772c-p_e.jpg,https://www.zillow.com/homedetails/56-Brampton-Rd-Toronto-ON-M9R-3J7/2062411987_zpid/,"56 Brampton Rd, Toronto, ON M9R 3J7",M9R3J7,43.69384,-79.44214
https://photos.zillowstatic.com/fp/6dfac4e8a2e7946435ca3383c860aade-p_e.jpg,https://www.zillow.com/homedetails/11-North-Dr-Toronto-ON-M9A-4R1/2062913832_zpid/,"11 North Dr, Toronto, ON M9A 4R1",M9A4R1,43.650352,-79.36099
https://photos.zillowstatic.com/fp/e227185885fba32f5c45d8a75f792f44-p_e.jpg,https://www.zillow.com/homedetails/481-Guildwood-Pkwy-Toronto-ON-M1E-1R3/2062755463_zpid/,"481 Guildwood Pkwy, Toronto, ON M1E 1R3",M1E1R3,43.733253,-79.446014
https://photos.zillowstatic.com/fp/c2e54b2b7042723641cd95325d9f58ab-p_e.jpg,https://www.zillow.com/homedetails/2150-Bayview-Ave-Toronto-ON-M4N-0A4/2062419854_zpid/,"2150 Bayview Ave, Toronto, ON M4N 0A4",M4N0A4,43.601597,-79.510155
https://photos.zillowstatic.com/fp/2b9b159a41210689cf2a5db6e7c9021b-p_e.jpg,https://www.zillow.com/homedetails/1830-Bloor-St-W-712-Toronto-ON-M6P-0A2/2062398941_zpid/,"1830 Bloor St W #712, Toronto, ON M6P 0A2",M6P0A2,43.652245,-79.37764
https://photos.zillowstatic.com/fp/78e34e0e0f110d6cd9eebf40b030e134-p_e.jpg,https://www.zillow.com/homedetails/15-Vicora-Linkway-915-Toronto-ON-M3C-1A9/2062411613_zpid/,"15 Vicora Linkway #915, Toronto, ON M3C 1A9",M3C1A9,43.732376,-79.53698
https://photos.zillowstatic.com/fp/7ab883153f3314a099b84da09b499ad5-p_e.jpg,https://www.zillow.com/homedetails/162-Oakridge-Dr-Toronto-ON-M1M-2A8/2062411675_zpid/,"162 Oakridge Dr, Toronto, ON M1M 2A8",M1M2A8,43.66115,-79.38163
https://photos.zillowstatic.com/fp/b5a71b7929fb67efa81d6a284df5546e-p_e.jpg,https://www.zillow.com/homedetails/53-Guestville-Ave-Toronto-ON-M6N-4N4/2062411625_zpid/,"53 Guestville Ave, Toronto, ON M6N 4N4",M6N4N4,43.636406,-79.466064
https://photos.zillowstatic.com/fp/2ceb2409f1670d27966ffea7b76ab65d-p_e.jpg,https://www.zillow.com/homedetails/65-Hillhurst-Blvd-Toronto-ON-M5N-1N5/2083133453_zpid/,"65 Hillhurst Blvd, Toronto, ON M5N 1N5",M5N1N5,43.70606,-79.397766
https://photos.zillowstatic.com/fp/452e1d3dbdabe44fbb5949dad533af83-p_e.jpg,https://www.zillow.com/homedetails/25-Acorn-Ave-Toronto-ON-M9B-3P7/2062411640_zpid/,"25 Acorn Ave, Toronto, ON M9B 3P7",M9B3P7,43.7026,-79.2919
https://photos.zillowstatic.com/fp/533a7c340879ec9a9575c1809e84575a-p_e.jpg,https://www.zillow.com/homedetails/34-Clematis-Rd-Toronto-ON-M2J-4X2/2064304927_zpid/,"34 Clematis Rd, Toronto, ON M2J 4X2",M2J4X2,43.643913,-79.400116
https://photos.zillowstatic.com/fp/4fa05d43bf5039b13e643684fb7b5387-p_e.jpg,https://www.zillow.com/homedetails/1-Hickory-Tree-Rd-2007-Toronto-ON-M9N-3W4/2062414841_zpid/,"1 Hickory Tree Rd #2007, Toronto, ON M9N 3W4",M9N3W4,43.64975,-79.365654
https://photos.zillowstatic.com/fp/110f4ab5302e7e77d4d61020bd2b70a5-p_e.jpg,https://www.zillow.com/homedetails/3233-Eglinton-Ave-E-1112-Toronto-ON-M1J-3N6/2080770685_zpid/,"3233 Eglinton Ave E #1112, Toronto, ON M1J 3N6",M1J3N6,43.698013,-79.51368
https://photos.zillowstatic.com/fp/4bdef30b1a19f11d5fe5acb120e52801-p_e.jpg,https://www.zillow.com/homedetails/11-Ridgewood-Rd-Toronto-ON-M5P-1T4/2063244412_zpid/,"11 Ridgewood Rd, Toronto, ON M5P 1T4",M5P1T4,43.625294,-79.47797
https://photos.zillowstatic.com/fp/7dd197657bf32bc91530ba43b5dd7510-p_e.jpg,https://www.zillow.com/homedetails/1-King-St-W-1118-Toronto-ON-M5H-1A1/2062411616_zpid/,"1 King St W #1118, Toronto, ON M5H 1A1",M5H1A1,43.767727,-79.37062
https://photos.zillowstatic.com/fp/888e3720d09e0f410d1b2dc3ad67a472-p_e.jpg,https://www.zillow.com/homedetails/33-Mill-St-1109-Toronto-ON-M5A-3R3/2062524180_zpid/,"33 Mill St #1109, Toronto, ON M5A 3R3",M5A3R3,43.681454,-79.28247
https://photos.zillowstatic.com/fp/98d9a6a3bd31ea226c0331ec423b1f22-p_e.jpg,https://www.zillow.com/homedetails/2059-Weston-Rd-44-Toronto-ON-M9N-1X7/2069545246_zpid/,"2059 Weston Rd #44, Toronto, ON M9N 1X7",M9N1X7,43.795807,-79.32518
https://photos.zillowstatic.com/fp/c9bf35859cb69574187a294affe91047-p_e.jpg,https://www.zillow.com/homedetails/3600-Yonge-St-235-Toronto-ON-M4N-3R8/2062400660_zpid/,"3600 Yonge St #235, Toronto, ON M4N 3R8",M4N3R8,43.722855,-79.45715
https://photos.zillowstatic.com/fp/7340b0e837c3373c1c266567cccbdd17-p_e.jpg,https://www.zillow.com/homedetails/1720-Eglinton-Ave-E-202-Toronto-ON-M4A-2X8/2062404977_zpid/,"1720 Eglinton Ave E #202, Toronto, ON M4A 2X8",M4A2X8,43.64044,-79.39719
https://photos.zillowstatic.com/fp/e107b12aacd675fd12540950d5de722d-p_e.jpg,https://www.zillow.com/homedetails/181-Dundas-St-E-2609-Toronto-ON-M5A-0N5/2062396660_zpid/,"181 Dundas St E #2609, Toronto, ON M5A 0N5",M5A0N5,43.720276,-79.34794
https://photos.zillowstatic.com/fp/820aab2ab0772f64fb9182c2636608ac-p_e.jpg,https://www.zillow.com/homedetails/16-Wellesley-Ave-Toronto-ON-M4X-1V3/2062526682_zpid/,"16 Wellesley Ave, Toronto, ON M4X 1V3",M4X1V3,43.758007,-79.40434
https://photos.zillowstatic.com/fp/1c7adf892e5167da29cbf726c69b5024-p_e.jpg,https://www.zillow.com/homedetails/200-Manitoba-St-401-Toronto-ON-M8Y-3Y9/2062414725_zpid/,"200 Manitoba St #401, Toronto, ON M8Y 3Y9",M8Y3Y9,43.711792,-79.32778
"https://maps.googleapis.com/maps/api/staticmap?mobile=false&sensor=true&maptype=satellite&size=575x242&zoom=17&center=43.745689392089844,-79.25177764892578&key=AIzaSyBJsNQO5ZeG-XAbqqWLKwG08fWITSxg33w&signature=bySlTZ1rjNp2eVyw_RLPwspBIGs=",https://www.zillow.com/homedetails/675-Brimley-Rd-Toronto-ON-M1J-1C1/2077081685_zpid/,"675 Brimley Rd, Toronto, ON M1J 1C1",M1J1C1,43.655106,-79.37625
https://photos.zillowstatic.com/fp/c1f7526dcd7e77c748fb4b9f052cf38a-p_e.jpg,https://www.zillow.com/homedetails/93-Regent-Rd-Toronto-ON-M3K-1H2/2082517578_zpid/,"93 Regent Rd, Toronto, ON M3K 1H2",M3K1H2,43.79244,-79.33577
https://photos.zillowstatic.com/fp/6dd1ea98ffaf9de907aab6d366d1720f-p_e.jpg,https://www.zillow.com/homedetails/5-Frith-Rd-412-Toronto-ON-M3N-2L5/2062404968_zpid/,"5 Frith Rd #412, Toronto, ON M3N 2L5",M3N2L5,43.641994,-79.381584
https://photos.zillowstatic.com/fp/809ed2102cee33bc57a0415aaefc3d01-p_e.jpg,https://www.zillow.com/homedetails/1B-Bowsprit-Ave-Toronto-ON-M9P-2Y4/2062408205_zpid/,"1B Bowsprit Ave, Toronto, ON M9P 2Y4",M9P2Y4,43.656807,-79.37509
https://photos.zillowstatic.com/fp/97503ba9d6f4c44204263f5081e1e1f7-p_e.jpg,https://www.zillow.com/homedetails/1121-Bay-St-605-Toronto-ON-M5S-3L9/2083428891_zpid/,"1121 Bay St #605, Toronto, ON M5S 3L9",M5S3L9,43.6833,-79.48873
https://photos.zillowstatic.com/fp/c4b61ceef77839dccf2b4782592d5827-p_e.jpg,https://www.zillow.com/homedetails/3121-Sheppard-Ave-E-1905-Toronto-ON-M1T-0B6/2071346376_zpid/,"3121 Sheppard Ave E #1905, Toronto, ON M1T 0B6",M1T0B6,43.79331,-79.237
https://photos.zillowstatic.com/fp/0d13f0995fb3edfa85640a74f956a656-p_e.jpg,https://www.zillow.com/homedetails/183-Wellington-St-W-2606-Toronto-ON-M5V-0A1/2069952034_zpid/,"183 Wellington St W #2606, Toronto, ON M5V 0A1",M5V0A1,43.65057,-79.35727
https://photos.zillowstatic.com/fp/958bb8f792b91f8d69ae8418695d5c94-p_e.jpg,https://www.zillow.com/homedetails/1-Neighbourhood-Ln-101-Toronto-ON-M8Y-0C2/2062411598_zpid/,"1 Neighbourhood Ln #101, Toronto, ON M8Y 0C2",M8Y0C2,43.656967,-79.37412
https://photos.zillowstatic.com/fp/b4cfeb9b65d7cf45d91b90391fefc33e-p_e.jpg,https://www.zillow.com/homedetails/5-Pheasant-Ln-Toronto-ON-M9A-1T1/2064132649_zpid/,"5 Pheasant Ln, Toronto, ON M9A 1T1",M9A1T1,43.72016,-79.33666
https://photos.zillowstatic.com/fp/823a4918e01fd7944c03b6ae94706543-p_e.jpg,https://www.zillow.com/homedetails/16-Teagarden-Ct-Toronto-ON-M2N-5Z9/2062413025_zpid/,"16 Teagarden Ct, Toronto, ON M2N 5Z9",M2N5Z9,43.646847,-79.40283
https://photos.zillowstatic.com/fp/c36fe66b62a262d4c8b61c78e2a2b941-p_e.jpg,https://www.zillow.com/homedetails/2-Eva-Rd-2121-Toronto-ON-M9C-0A9/2062411592_zpid/,"2 Eva Rd #2121, Toronto, ON M9C 0A9",M9C0A9,43.642544,-79.38146
https://photos.zillowstatic.com/fp/fd0ff4cad294d14584929e591dfeff96-p_e.jpg,https://www.zillow.com/homedetails/856-Danforth-Rd-Toronto-ON-M1K-1H5/2063006889_zpid/,"856 Danforth Rd, Toronto, ON M1K 1H5",M1K1H5,43.72638,-79.31152
https://photos.zillowstatic.com/fp/f9c08787be00bf0de9094a99b2315872-p_e.jpg,https://www.zillow.com/homedetails/77-Saint-Georges-Blvd-Toronto-ON-M9R-1X5/2062433190_zpid/,"77 Saint Georges Blvd, Toronto, ON M9R 1X5",M9R1X5,43.647938,-79.39094
https://photos.zillowstatic.com/fp/5b7b692ee2c5869011029289a1ef79a6-p_e.jpg,https://www.zillow.com/homedetails/275-Yorkland-Rd-1504-Toronto-ON-M2J-0B4/2062419859_zpid/,"275 Yorkland Rd #1504, Toronto, ON M2J 0B4",M2J0B4,43.790024,-79.25466
https://photos.zillowstatic.com/fp/3f348f7ba0e665b62de426661666713d-p_e.jpg,https://www.zillow.com/homedetails/185-Legion-Rd-N-2110-Toronto-ON-M8Y-0A1/2062417275_zpid/,"185 Legion Rd N #2110, Toronto, ON M8Y 0A1",M8Y0A1,43.7191,-79.30226
https://photos.zillowstatic.com/fp/5cc41c7c544b9119dfa0d81dd5d13204-p_e.jpg,https://www.zillow.com/homedetails/11-Pont-Ln-Toronto-ON-M9N-0A7/2063164569_zpid/,"11 Pont Ln, Toronto, ON M9N 0A7",M9N0A7,43.77366,-79.249855
https://photos.zillowstatic.com/fp/5be35b364fe27a9d337bf64899b1f226-p_e.jpg,https://www.zillow.com/homedetails/6-Eva-Rd-1407-Toronto-ON-M9C-0B1/2062411597_zpid/,"6 Eva Rd #1407, Toronto, ON M9C 0B1",M9C0B1,43.668037,-79.38844
https://photos.zillowstatic.com/fp/44cd87971277af53e5eb8dd27946f061-p_e.jpg,https://www.zillow.com/homedetails/2645-Kipling-Ave-404-Toronto-ON-M9V-3S6/2077203757_zpid/,"2645 Kipling Ave #404, Toronto, ON M9V 3S6",M9V3S6,43.79894,-79.31347
https://photos.zillowstatic.com/fp/c2524a37e5595eb9367bbda261e4b122-p_e.jpg,https://www.zillow.com/homedetails/4060-Lawrence-Ave-E-103-Toronto-ON-M1E-4V4/2062453795_zpid/,"4060 Lawrence Ave E #103, Toronto, ON M1E 4V4",M1E4V4,43.641872,-79.379654
https://photos.zillowstatic.com/fp/c9407c5f127111cd5fd98d78bb0609c0-p_e.jpg,https://www.zillow.com/homedetails/58-Fuller-Ave-Toronto-ON-M6R-2C3/2062500101_zpid/,"58 Fuller Ave, Toronto, ON M6R 2C3",M6R2C3,43.641872,-79.379654
https://photos.zillowstatic.com/fp/03ae6c9c57caf3dbd5512bc46abef427-p_e.jpg,https://www.zillow.com/homedetails/2-Eva-Rd-828-Toronto-ON-M9C-0A9/2071830624_zpid/,"2 Eva Rd #828, Toronto, ON M9C 0A9",M9C0A9,43.70606,-79.397766
https://photos.zillowstatic.com/fp/3918b56caed111d980b9b9ef7cd27b8c-p_e.jpg,https://www.zillow.com/homedetails/75-Canterbury-Pl-310-Toronto-ON-M2N-0J3/2064342294_zpid/,"75 Canterbury Pl #310, Toronto, ON M2N 0J3",M2N0J3,43.791588,-79.235374
https://photos.zillowstatic.com/fp/dad6f6b6f7dfabc32ea7fdc0edbb4055-p_e.jpg,https://www.zillow.com/homedetails/552-Sandhurst-Cir-Toronto-ON-M1S-4J6/2062418124_zpid/,"552 Sandhurst Cir, Toronto, ON M1S 4J6",M1S4J6,43.652874,-79.58087
https://photos.zillowstatic.com/fp/d9248ac2496d16ccd488d7585ab2e029-p_e.jpg,https://www.zillow.com/homedetails/88-Park-Lawn-Rd-801-Toronto-ON-M8Y-0B5/2062419855_zpid/,"88 Park Lawn Rd #801, Toronto, ON M8Y 0B5",M8Y0B5,43.643063,-79.42813
https://photos.zillowstatic.com/fp/13d2b95d7a50674bbce3aa37d03cc914-p_e.jpg,https://www.zillow.com/homedetails/33-Northleigh-Dr-Toronto-ON-M1H-2S3/2062396741_zpid/,"33 Northleigh Dr, Toronto, ON M1H 2S3",M1H2S3,43.66379,-79.383026
https://photos.zillowstatic.com/fp/a69e53ae88f8b12c9bdcf462140e12d4-p_e.jpg,https://www.zillow.com/homedetails/122-Portsdown-Rd-Toronto-ON-M1P-1V5/2062396709_zpid/,"122 Portsdown Rd, Toronto, ON M1P 1V5",M1P1V5,43.774075,-79.2502
https://photos.zillowstatic.com/fp/b79b42938f3a8bf71ca0f97fb3819e4d-p_e.jpg,https://www.zillow.com/homedetails/1250-Bridletowne-Cir-1006-Toronto-ON-M1W-2V1/2062419858_zpid/,"1250 Bridletowne Cir #1006, Toronto, ON M1W 2V1",M1W2V1,43.779842,-79.28196
https://photos.zillowstatic.com/fp/12cb3eba8d94db9eeb57efa161000dc9-p_e.jpg,https://www.zillow.com/homedetails/10-Capreol-Ct-1809-Toronto-ON-M5V-4B3/2070186052_zpid/,"10 Capreol Ct #1809, Toronto, ON M5V 4B3",M5V4B3,43.72679,-79.328125
https://photos.zillowstatic.com/fp/38ed904815009297cd97f680c6ce6e40-p_e.jpg,https://www.zillow.com/homedetails/434-Victoria-Park-Ave-Toronto-ON-M4E-3T2/2062421043_zpid/,"434 Victoria Park Ave, Toronto, ON M4E 3T2",M4E3T2,43.70423,-79.39735
https://photos.zillowstatic.com/fp/3c4a0693bf9836d58a49b0a4e6bbc888-p_e.jpg,https://www.zillow.com/homedetails/5229-Dundas-St-W-1809-Toronto-ON-M9B-6L9/2071883606_zpid/,"5229 Dundas St W #1809, Toronto, ON M9B 6L9",M9B6L9,43.72722,-79.25308
https://photos.zillowstatic.com/fp/290e8384da773c1aadbade85777e7dfc-p_e.jpg,https://www.zillow.com/homedetails/17B-Relmar-Rd-Toronto-ON-M5P-2Y4/2062734442_zpid/,"17B Relmar Rd, Toronto, ON M5P 2Y4",M5P2Y4,43.771736,-79.26138
https://photos.zillowstatic.com/fp/a4efed70e2302efcb92353678fd3da41-p_e.jpg,https://www.zillow.com/homedetails/116-Wheeler-Ave-Toronto-ON-M4L-3V2/2063171806_zpid/,"116 Wheeler Ave, Toronto, ON M4L 3V2",M4L3V2,43.672108,-79.40125
https://photos.zillowstatic.com/fp/44809283060ee17c0ef34728b2bd158c-p_e.jpg,https://www.zillow.com/homedetails/16-Bailey-Cres-Toronto-ON-M1G-2P3/2062908471_zpid/,"16 Bailey Cres, Toronto, ON M1G 2P3",M1G2P3,43.77866,-79.417946
https://photos.zillowstatic.com/fp/5f43122d009038b84dc2a47449ce6e0f-p_e.jpg,https://www.zillow.com/homedetails/370-Dixon-Rd-1006-Toronto-ON-M9R-1T2/2062411589_zpid/,"370 Dixon Rd #1006, Toronto, ON M9R 1T2",M9R1T2,43.740112,-79.43508
https://photos.zillowstatic.com/fp/7594f88cec8d016712ac795c6dac7725-p_e.jpg,https://www.zillow.com/homedetails/50-Brian-Harrison-Way-2404-Toronto-ON-M1P-5J4/2068586216_zpid/,"50 Brian Harrison Way #2404, Toronto, ON M1P 5J4",M1P5J4,43.790176,-79.44959
https://photos.zillowstatic.com/fp/456168752cad69a5979b8078cd5a8416-p_e.jpg,https://www.zillow.com/homedetails/69-Harrison-Rd-Toronto-ON-M2L-1V9/2062644527_zpid/,"69 Harrison Rd, Toronto, ON M2L 1V9",M2L1V9,43.791588,-79.235374
https://photos.zillowstatic.com/fp/71a1345dc6cc824488918c3273cd9e8a-p_e.jpg,https://www.zillow.com/homedetails/85-Queens-Wharf-Rd-TOWNHOUSE-Toronto-ON-M5V-0J9/2071901006_zpid/,"85 Queens Wharf Rd #TOWNHOUSE, Toronto, ON M5V 0J9",M5V0J9,43.77591,-79.308105
https://photos.zillowstatic.com/fp/223b70e19eb48600ba4755a50ad079c6-p_e.jpg,https://www.zillow.com/homedetails/55-Huntingdale-Blvd-1603-Toronto-ON-M1W-2N9/2062419049_zpid/,"55 Huntingdale Blvd #1603, Toronto, ON M1W 2N9",M1W2N9,43.68671,-79.307625
https://photos.zillowstatic.com/fp/43b3aaffc095f7456827688c76ae2045-p_e.jpg,https://www.zillow.com/homedetails/1070-Briar-Hill-Ave-Toronto-ON-M6B-1M7/2062710306_zpid/,"1070 Briar Hill Ave, Toronto, ON M6B 1M7",M6B1M7,43.779655,-79.28293
https://photos.zillowstatic.com/fp/4bd757f0089e37b5ede253926c892c84-p_e.jpg,https://www.zillow.com/homedetails/30-Sunrise-Ave-411-Toronto-ON-M4A-2R3/2062417185_zpid/,"30 Sunrise Ave #411, Toronto, ON M4A 2R3",M4A2R3,43.660137,-79.38587
https://photos.zillowstatic.com/fp/cbc4c3937c5de09cc14dbc0a1c3866b5-p_e.jpg,https://www.zillow.com/homedetails/110-Jim-Baird-Mews-Toronto-ON-M3L-0C4/2081502897_zpid/,"110 Jim Baird Mews, Toronto, ON M3L 0C4",M3L0C4,43.691498,-79.34212
https://photos.zillowstatic.com/fp/db172621fd2f7a952ccc38d594520c1c-p_e.jpg,https://www.zillow.com/homedetails/10-Markbrook-Ln-1705-Toronto-ON-M9V-5E3/2062415784_zpid/,"10 Markbrook Ln #1705, Toronto, ON M9V 5E3",M9V5E3,43.780823,-79.247604
https://photos.zillowstatic.com/fp/8b7afbe44127c3ac108727c3fa85bf0b-p_e.jpg,https://www.zillow.com/homedetails/5-Frith-Rd-804-Toronto-ON-M3N-2L5/2067804436_zpid/,"5 Frith Rd #804, Toronto, ON M3N 2L5",M3N2L5,43.6444,-79.52869
https://photos.zillowstatic.com/fp/d734dbe1f2b8058b8845742312e69dad-p_e.jpg,https://www.zillow.com/homedetails/29-Ballyconnor-Ct-Toronto-ON-M2M-0B6/2063328129_zpid/,"29 Ballyconnor Ct, Toronto, ON M2M 0B6",M2M0B6,43.78593,-79.20565
https://photos.zillowstatic.com/fp/1928a8f7d42f4032dafff74d5cb860fc-p_e.jpg,https://www.zillow.com/homedetails/234-Albion-Rd-610-Toronto-ON-M9W-6A5/2062459107_zpid/,"234 Albion Rd #610, Toronto, ON M9W 6A5",M9W6A5,43.682133,-79.45115
https://photos.zillowstatic.com/fp/73f2e7dd8cefb7c8dd06b3fc192a5261-p_e.jpg,https://www.zillow.com/homedetails/85-Wood-St-2108-Toronto-ON-M4Y-0E8/2071872313_zpid/,"85 Wood St #2108, Toronto, ON M4Y 0E8",M4Y0E8,43.652035,-79.37334
https://photos.zillowstatic.com/fp/eff33a11b3e4e113b51d7a1ac8331e91-p_e.jpg,https://www.zillow.com/homedetails/80-Chelford-Rd-Toronto-ON-M3B-2E5/2062417189_zpid/,"80 Chelford Rd, Toronto, ON M3B 2E5",M3B2E5,43.63423,-79.54093
https://photos.zillowstatic.com/fp/d9db886537d180e6d95fc05350de9728-p_e.jpg,https://www.zillow.com/homedetails/800-Kennedy-Rd-605-Toronto-ON-M1K-2C9/2062411590_zpid/,"800 Kennedy Rd #605, Toronto, ON M1K 2C9",M1K2C9,43.71985,-79.302765
https://photos.zillowstatic.com/fp/26520f096d27fe13e55db8975c01ec0b-p_e.jpg,https://www.zillow.com/homedetails/20-Livonia-Pl-7-Toronto-ON-M1E-4W6/2063260533_zpid/,"20 Livonia Pl #7, Toronto, ON M1E 4W6",M1E4W6,43.638138,-79.420845
https://photos.zillowstatic.com/fp/e3bc49003f99d722c25ad0847d25e8ec-p_e.jpg,https://www.zillow.com/homedetails/49-E-Liberty-St-2609-Toronto-ON-M6K-0A7/2062681344_zpid/,"49 E Liberty St #2609, Toronto, ON M6K 0A7",M6K0A7,43.64664,-79.394264
https://photos.zillowstatic.com/fp/377b8a2a38b3f8883bf383a9fc9914b0-p_e.jpg,https://www.zillow.com/homedetails/16-Brookers-Ln-705-Toronto-ON-M8V-0A5/2062423029_zpid/,"16 Brookers Ln #705, Toronto, ON M8V 0A5",M8V0A5,43.72638,-79.31152
https://photos.zillowstatic.com/fp/91b3a6c49c4d4278600607ce79f189a6-p_e.jpg,https://www.zillow.com/homedetails/75-Portland-St-327-Toronto-ON-M5V-2M9/2062396664_zpid/,"75 Portland St #327, Toronto, ON M5V 2M9",M5V2M9,43.64174,-79.42332
https://photos.zillowstatic.com/fp/359df780c383e908d8fd927afea7a6d2-p_e.jpg,https://www.zillow.com/homedetails/1720-Eglinton-Ave-E-620-Toronto-ON-M4A-2X8/2062411608_zpid/,"1720 Eglinton Ave E #620, Toronto, ON M4A 2X8",M4A2X8,43.618717,-79.48554
https://photos.zillowstatic.com/fp/9b93e33aa4b97e9257ef7d53dce5e1e9-p_e.jpg,https://www.zillow.com/homedetails/2-Thomas-Mulholland-Dr-Toronto-ON-M3K-0B5/2062411635_zpid/,"2 Thomas Mulholland Dr, Toronto, ON M3K 0B5",M3K0B5,43.64635,-79.39363
https://photos.zillowstatic.com/fp/df556bf62f9d4207f09ce2f03236c084-p_e.jpg,https://www.zillow.com/homedetails/195-Redpath-Ave-3216-Toronto-ON-M4P-0E4/2062411615_zpid/,"195 Redpath Ave #3216, Toronto, ON M4P 0E4",M4P0E4,43.75818,-79.18413
https://photos.zillowstatic.com/fp/58610a450e2d32b69d50bc5dab4f6d37-p_e.jpg,https://www.zillow.com/homedetails/313-Milverton-Blvd-Toronto-ON-M4J-1V8/2071009195_zpid/,"313 Milverton Blvd, Toronto, ON M4J 1V8",M4J1V8,43.715557,-79.28169
https://photos.zillowstatic.com/fp/dc847ef26d028583df67e3ddbc96d1b8-p_e.jpg,https://www.zillow.com/homedetails/60-Brian-Harrison-Way-3306-Toronto-ON-M1P-5J5/2062418123_zpid/,"60 Brian Harrison Way #3306, Toronto, ON M1P 5J5",M1P5J5,43.798508,-79.221436
https://photos.zillowstatic.com/fp/92ebb03e692085bcdd2442f6db69f820-p_e.jpg,https://www.zillow.com/homedetails/650-Sheppard-Ave-E-PENTHOUSE-8-Toronto-ON-M2K-3E4/2083122230_zpid/,"650 Sheppard Ave E PENTHOUSE 8, Toronto, ON M2K 3E4",M2K3E4,43.638092,-79.583984
https://photos.zillowstatic.com/fp/05f3979086203a25af69527aa57e95b1-p_e.jpg,https://www.zillow.com/homedetails/39-Grandville-Ave-Toronto-ON-M6N-4T8/2062517255_zpid/,"39 Grandville Ave, Toronto, ON M6N 4T8",M6N4T8,43.67984,-79.32119
https://photos.zillowstatic.com/fp/1a037cf78653293b4e4a6002fa90cb57-p_e.jpg,https://www.zillow.com/homedetails/350-Mill-Rd-UPH4-Toronto-ON-M9C-5R7/2063199624_zpid/,"350 Mill Rd #UPH4, Toronto, ON M9C 5R7",M9C5R7,43.767906,-79.16864
https://photos.zillowstatic.com/fp/37a960de970a52ddf9e668eb188835e5-p_e.jpg,https://www.zillow.com/homedetails/14-Hiltz-Ave-Toronto-ON-M4L-2N5/2062428932_zpid/,"14 Hiltz Ave, Toronto, ON M4L 2N5",M4L2N5,43.62607,-79.490616
https://photos.zillowstatic.com/fp/57e8354e2ae960bcfb1342ededafd965-p_e.jpg,https://www.zillow.com/homedetails/8-Silverbell-Grv-207-Toronto-ON-M1B-4Z3/2062396659_zpid/,"8 Silverbell Grv #207, Toronto, ON M1B 4Z3",M1B4Z3,43.645405,-79.40141
https://photos.zillowstatic.com/fp/0ab5fe2a9b2bbb758de5b225c5e5e630-p_e.jpg,https://www.zillow.com/homedetails/89-Dunfield-Ave-3406-Toronto-ON-M4S-0A4/2069605586_zpid/,"89 Dunfield Ave #3406, Toronto, ON M4S 0A4",M4S0A4,43.69788,-79.27615
https://photos.zillowstatic.com/fp/721ebe1c2ace7e95a7000e590961e8a7-p_e.jpg,https://www.zillow.com/homedetails/65-Huntingdale-Blvd-1405-Toronto-ON-M1W-2P1/2062557411_zpid/,"65 Huntingdale Blvd #1405, Toronto, ON M1W 2P1",M1W2P1,43.664803,-79.38696
https://photos.zillowstatic.com/fp/334470e40ec337b3bcf1e1cb785319ab-p_e.jpg,https://www.zillow.com/homedetails/1-Palace-Pier-Ct-4107-Toronto-ON-M8V-3W9/2062416253_zpid/,"1 Palace Pier Ct #4107, Toronto, ON M8V 3W9",M8V3W9,43.699455,-79.38709
https://photos.zillowstatic.com/fp/4f5722b81a2712ca10a018bfe1a0f10d-p_e.jpg,https://www.zillow.com/homedetails/9-Ladysbridge-Dr-Toronto-ON-M1G-3H5/2071895768_zpid/,"9 Ladysbridge Dr, Toronto, ON M1G 3H5",M1G3H5,43.77459,-79.23049
https://photos.zillowstatic.com/fp/8dfa7209e7eceb28c4ea9af6088ce369-p_e.jpg,https://www.zillow.com/homedetails/274-Beech-Ave-Toronto-ON-M4E-3J2/2062427437_zpid/,"274 Beech Ave, Toronto, ON M4E 3J2",M4E3J2,43.706955,-79.39502
https://photos.zillowstatic.com/fp/7172457654aaad4a0c146a364a4783f5-p_e.jpg,https://www.zillow.com/homedetails/185-Dawlish-Ave-Toronto-ON-M4N-1H6/2062589598_zpid/,"185 Dawlish Ave, Toronto, ON M4N 1H6",M4N1H6,43.65986,-79.4884
https://photos.zillowstatic.com/fp/70cd0126d900940018719aeb378f974f-p_e.jpg,https://www.zillow.com/homedetails/509-Beecroft-Rd-1216-Toronto-ON-M2N-0A3/2062417943_zpid/,"509 Beecroft Rd #1216, Toronto, ON M2N 0A3",M2N0A3,43.656803,-79.37509
https://photos.zillowstatic.com/fp/ac54bc53f454b5e363d657a62df64698-p_e.jpg,https://www.zillow.com/homedetails/105-Victoria-St-1202-Toronto-ON-M5C-3B4/2062411604_zpid/,"105 Victoria St #1202, Toronto, ON M5C 3B4",M5C3B4,43.643013,-79.406204
https://photos.zillowstatic.com/fp/8c1cf434a4989a0a73b68ee153b65685-p_e.jpg,https://www.zillow.com/homedetails/3845-Lake-Shore-Blvd-W-1510-Toronto-ON-M8W-4Y3/2062423254_zpid/,"3845 Lake Shore Blvd W #1510, Toronto, ON M8W 4Y3",M8W4Y3,43.76033,-79.41165
https://photos.zillowstatic.com/fp/f3ddfb65664e016de92a7c9b54dbc7d1-p_e.jpg,https://www.zillow.com/homedetails/119-Crocus-Dr-Toronto-ON-M1R-4T4/2062602683_zpid/,"119 Crocus Dr, Toronto, ON M1R 4T4",M1R4T4,43.702477,-79.522064
https://photos.zillowstatic.com/fp/e1706a654a4f7ba65d5bcf9920a294ae-p_e.jpg,https://www.zillow.com/homedetails/145-Howland-Ave-Toronto-ON-M5R-3B4/2062424529_zpid/,"145 Howland Ave, Toronto, ON M5R 3B4",M5R3B4,43.760777,-79.52685
https://photos.zillowstatic.com/fp/085530bdb607cccee33972dcaca76fec-p_e.jpg,https://www.zillow.com/homedetails/30-Meadowglen-Pl-303-Toronto-ON-M1G-2V6/2071864218_zpid/,"30 Meadowglen Pl #303, Toronto, ON M1G 2V6",M1G2V6,43.779842,-79.28196
https://photos.zillowstatic.com/fp/70bf9ec8a48166b0131ab5953e581ac7-p_e.jpg,https://www.zillow.com/homedetails/770-Bay-St-UNIT-1402-Toronto-ON-M5G-0A6/2080089143_zpid/,"770 Bay St UNIT 1402, Toronto, ON M5G 0A6",M5G0A6,43.640995,-79.41626
https://photos.zillowstatic.com/fp/a0dce2a84e7d60cd4e79daf2aede2beb-p_e.jpg,https://www.zillow.com/homedetails/5-Ronan-Ave-Toronto-ON-M4N-2X8/2062921239_zpid/,"5 Ronan Ave, Toronto, ON M4N 2X8",M4N2X8,43.734467,-79.44637
https://photos.zillowstatic.com/fp/c50ebb15523ed633ad9b286baba99eff-p_e.jpg,https://www.zillow.com/homedetails/25-Berryman-St-Toronto-ON-M5R-1M7/2062962604_zpid/,"25 Berryman St, Toronto, ON M5R 1M7",M5R1M7,43.762714,-79.34648
https://photos.zillowstatic.com/fp/e39829c02ed19260259db7d6b0e2dcd1-p_e.jpg,https://www.zillow.com/homedetails/245-Dalesford-Rd-316-Toronto-ON-M8Y-4H7/2062404978_zpid/,"245 Dalesford Rd #316, Toronto, ON M8Y 4H7",M8Y4H7,43.63751,-79.40058
https://photos.zillowstatic.com/fp/e5969cc8ac524df29bfcd38c7f2af6e1-p_e.jpg,https://www.zillow.com/homedetails/75-Baby-Point-Rd-Toronto-ON-M6S-2G6/2063080780_zpid/,"75 Baby Point Rd, Toronto, ON M6S 2G6",M6S2G6,43.80704,-79.278885
https://photos.zillowstatic.com/fp/612cb2b1e8a8708f2ff5e66f0ed2367a-p_e.jpg,https://www.zillow.com/homedetails/189-Pinewood-Ave-Toronto-ON-M6C-2V1/2070315038_zpid/,"189 Pinewood Ave, Toronto, ON M6C 2V1",M6C2V1,43.7071,-79.30629
https://photos.zillowstatic.com/fp/cd25a6d959af014a6f89927f745e9a17-p_e.jpg,https://www.zillow.com/homedetails/608-Richmond-St-W-UNIT-419-Toronto-ON-M5V-0N9/2062409019_zpid/,"608 Richmond St W UNIT 419, Toronto, ON M5V 0N9",M5V0N9,43.62433,-79.490974
https://photos.zillowstatic.com/fp/5f470787350a634e173754d7a6511862-p_e.jpg,https://www.zillow.com/homedetails/66-Harper-Ave-Toronto-ON-M4T-2L3/2062697543_zpid/,"66 Harper Ave, Toronto, ON M4T 2L3",M4T2L3,43.66295,-79.32418
https://photos.zillowstatic.com/fp/f63140000751909d888d2a58417073cf-p_e.jpg,https://www.zillow.com/homedetails/17-Dundonald-St-UNIT-607-Toronto-ON-M4Y-0E4/2071832090_zpid/,"17 Dundonald St UNIT 607, Toronto, ON M4Y 0E4",M4Y0E4,43.749714,-79.30992
https://photos.zillowstatic.com/fp/7871128c61ef086869e186930d04e3ef-p_e.jpg,https://www.zillow.com/homedetails/2285-Lake-Shore-Blvd-W-904-Toronto-ON-M8V-3X9/2062419847_zpid/,"2285 Lake Shore Blvd W #904, Toronto, ON M8V 3X9",M8V3X9,43.663628,-79.3515
https://photos.zillowstatic.com/fp/589ebd9063be8fcc41b612d469d7de45-p_e.jpg,https://www.zillow.com/homedetails/16-Guildpark-Ptwy-16-Toronto-ON-M1J-3P1/2062403802_zpid/,"16 Guildpark Ptwy #16, Toronto, ON M1J 3P1",M1J3P1,43.751205,-79.58286
https://photos.zillowstatic.com/fp/1a2a8f0950424d440a6e5cc06bb85e4b-p_e.jpg,https://www.zillow.com/homedetails/715-Don-Mills-Rd-1-Toronto-ON-M3C-1S5/2062418885_zpid/,"715 Don Mills Rd #1, Toronto, ON M3C 1S5",M3C1S5,43.643063,-79.42813
https://photos.zillowstatic.com/fp/5194b09854a9fbc19f92a700d1ae7eab-p_e.jpg,https://www.zillow.com/homedetails/8818-Sheppard-Ave-E-Toronto-ON-M1B-6J4/2062403183_zpid/,"8818 Sheppard Ave E, Toronto, ON M1B 6J4",M1B6J4,43.64377,-79.40937
https://photos.zillowstatic.com/fp/1253411c3001dfe9f440a76b135a049b-p_e.jpg,https://www.zillow.com/homedetails/22-Western-Battery-Rd-119-Toronto-ON-M6K-3N9/2071138052_zpid/,"22 Western Battery Rd #119, Toronto, ON M6K 3N9",M6K3N9,43.696453,-79.39334
https://photos.zillowstatic.com/fp/9e2605a24475e3b70729f75c2deb6f48-p_e.jpg,https://www.zillow.com/homedetails/100-Upper-Madison-Ave-805-Toronto-ON-M2N-6M4/2062411614_zpid/,"100 Upper Madison Ave #805, Toronto, ON M2N 6M4",M2N6M4,43.76594,-79.28816
https://photos.zillowstatic.com/fp/f9059a5ae2493480b62fc9298be95bdc-p_e.jpg,https://www.zillow.com/homedetails/75-Ashbourne-Dr-Toronto-ON-M9B-4H4/2062742879_zpid/,"75 Ashbourne Dr, Toronto, ON M9B 4H4",M9B4H4,43.780003,-79.13361
https://photos.zillowstatic.com/fp/ac7c6a1ebec58ae6f563b75d1befe876-p_e.jpg,https://www.zillow.com/homedetails/4-Park-Vis-302-Toronto-ON-M4B-3M8/2062419856_zpid/,"4 Park Vis #302, Toronto, ON M4B 3M8",M4B3M8,43.659096,-79.368935
https://photos.zillowstatic.com/fp/29a21d78ba96e393bc5faf684c045c9c-p_e.jpg,https://www.zillow.com/homedetails/217-Saint-George-St-TOWNHOUSE-11-Toronto-ON-M5R-3S7/2062419846_zpid/,"217 Saint George St TOWNHOUSE 11, Toronto, ON M5R 3S7",M5R3S7,43.661182,-79.512566
https://photos.zillowstatic.com/fp/edcceaf4eccb7a79389e9b542d83f116-p_e.jpg,https://www.zillow.com/homedetails/30-Shore-Breeze-Dr-3116-Toronto-ON-M8V-0J1/2071855686_zpid/,"30 Shore Breeze Dr #3116, Toronto, ON M8V 0J1",M8V0J1,43.811195,-79.21862
https://photos.zillowstatic.com/fp/a04f343df648be48c15be3588e8b698a-p_e.jpg,https://www.zillow.com/homedetails/410-McLevin-Ave-612-Toronto-ON-M1B-5J5/2080978915_zpid/,"410 McLevin Ave #612, Toronto, ON M1B 5J5",M1B5J5,43.673008,-79.466774
https://photos.zillowstatic.com/fp/12335581077af699b319fdea8a0b08e7-p_e.jpg,https://www.zillow.com/homedetails/40-Mendelssohn-St-4-Toronto-ON-M1L-0G8/2062411610_zpid/,"40 Mendelssohn St #4, Toronto, ON M1L 0G8",M1L0G8,43.682037,-79.49429
https://photos.zillowstatic.com/fp/6559b4bc9b0492f2d2aa728e570eae79-p_e.jpg,https://www.zillow.com/homedetails/200-Sackville-St-1201-Toronto-ON-M5A-0C4/2071046834_zpid/,"200 Sackville St #1201, Toronto, ON M5A 0C4",M5A0C4,43.765854,-79.38277
https://photos.zillowstatic.com/fp/b518b310fa1b2bd5493434331b4a8183-p_e.jpg,https://www.zillow.com/homedetails/2240-Lake-Shore-Blvd-W-1107-Toronto-ON-M8V-0B1/2062416070_zpid/,"2240 Lake Shore Blvd W #1107, Toronto, ON M8V 0B1",M8V0B1,43.623016,-79.515976
https://photos.zillowstatic.com/fp/bb0ff4162453d96b739c20ff52841bda-p_e.jpg,https://www.zillow.com/homedetails/21-Caswell-Dr-Toronto-ON-M2M-3M1/2062466269_zpid/,"21 Caswell Dr, Toronto, ON M2M 3M1",M2M3M1,43.74976,-79.3009
https://photos.zillowstatic.com/fp/85482a856021fdc049517e467c255717-p_e.jpg,https://www.zillow.com/homedetails/1236-Gerrard-St-E-Toronto-ON-M4L-1Y6/2071887661_zpid/,"1236 Gerrard St E, Toronto, ON M4L 1Y6",M4L1Y6,43.764236,-79.41274
https://photos.zillowstatic.com/fp/9703ffb22dcd786b597e1ea0edc73490-p_e.jpg,https://www.zillow.com/homedetails/185-Roehampton-Ave-813-Toronto-ON-M4P-0C6/2063050047_zpid/,"185 Roehampton Ave #813, Toronto, ON M4P 0C6",M4P0C6,43.769886,-79.413536
https://photos.zillowstatic.com/fp/5a748e6c6d54e8d7e30bdf5d34f0d76f-p_e.jpg,https://www.zillow.com/homedetails/845-Dovercourt-Rd-Toronto-ON-M6H-2X4/2063375761_zpid/,"845 Dovercourt Rd, Toronto, ON M6H 2X4",M6H2X4,43.734104,-79.26264
https://photos.zillowstatic.com/fp/d28f4b660e0d6e4282f8ef24421456fd-p_e.jpg,https://www.zillow.com/homedetails/1100-Kingston-Rd-401-Toronto-ON-M1N-0B3/2062417184_zpid/,"1100 Kingston Rd #401, Toronto, ON M1N 0B3",M1N0B3,43.71251,-79.38542
https://photos.zillowstatic.com/fp/6457f673f6a974e19210fecc3656eb9f-p_e.jpg,https://www.zillow.com/homedetails/73-Howell-Sq-Toronto-ON-M1B-1C3/2062653277_zpid/,"73 Howell Sq, Toronto, ON M1B 1C3",M1B1C3,43.811153,-79.267586
https://photos.zillowstatic.com/fp/e24b04a4ef8a9755255894158afbe623-p_e.jpg,https://www.zillow.com/homedetails/40-Rodeo-Ptwy-Toronto-ON-M1N-4C9/2071812024_zpid/,"40 Rodeo Ptwy, Toronto, ON M1N 4C9",M1N4C9,43.6439,-79.39948
https://photos.zillowstatic.com/fp/e2d2340eca1924572572e96d4b3946f7-p_e.jpg,https://www.zillow.com/homedetails/20-Bruyeres-Mews-2011-Toronto-ON-M5V-0G8/2062417652_zpid/,"20 Bruyeres Mews #2011, Toronto, ON M5V 0G8",M5V0G8,43.662025,-79.38654
https://photos.zillowstatic.com/fp/0db9b2de61ad65bf70b084d8c7fdb5d4-p_e.jpg,https://www.zillow.com/homedetails/501-Adelaide-St-W-505-Toronto-ON-M5V-0R3/2062698273_zpid/,"501 Adelaide St W #505, Toronto, ON M5V 0R3",M5V0R3,43.73674,-79.57357
https://photos.zillowstatic.com/fp/370d66d1f0e50f4413ef309a70bff6cb-p_e.jpg,https://www.zillow.com/homedetails/5-Soudan-Ave-923-Toronto-ON-M4S-0B1/2062419852_zpid/,"5 Soudan Ave #923, Toronto, ON M4S 0B1",M4S0B1,43.749535,-79.20746
https://photos.zillowstatic.com/fp/17233d9c5bcc28ca1c147c4bc86d4703-p_e.jpg,https://www.zillow.com/homedetails/82-Cedar-Brae-Blvd-Toronto-ON-M1J-2K5/2069186613_zpid/,"82 Cedar Brae Blvd, Toronto, ON M1J 2K5",M1J2K5,43.685066,-79.29297
https://photos.zillowstatic.com/fp/24c171fe5e729e20737dcd184c690863-p_e.jpg,https://www.zillow.com/homedetails/51-E-Liberty-St-1907-Toronto-ON-M6K/2062417182_zpid/,"51 E Liberty St #1907, Toronto, ON M6K",M6K,43.749535,-79.20746
https://photos.zillowstatic.com/fp/30252210a169ca290e2dfae04b1396d2-p_e.jpg,https://www.zillow.com/homedetails/18-William-Carson-Cres-209-Toronto-ON-M2P-2G6/2062411612_zpid/,"18 William Carson Cres #209, Toronto, ON M2P 2G6",M2P2G6,43.63916,-79.54058
https://photos.zillowstatic.com/fp/32137f57f487e56eaf2786a0e24837f6-p_e.jpg,https://www.zillow.com/homedetails/3237-Bayview-Ave-505-Toronto-ON-M2K-0G1/2078528495_zpid/,"3237 Bayview Ave #505, Toronto, ON M2K 0G1",M2K0G1,43.70423,-79.39735
https://photos.zillowstatic.com/fp/12f7779f80f565977a4965aa6809a3d8-p_e.jpg,https://www.zillow.com/homedetails/132-Janray-Dr-Toronto-ON-M1G-1Y9/2083998757_zpid/,"132 Janray Dr, Toronto, ON M1G 1Y9",M1G1Y9,43.733707,-79.481834
https://photos.zillowstatic.com/fp/3e1be19576bafb0e123e1642ec8b4203-p_e.jpg,https://www.zillow.com/homedetails/11-Bush-Dr-Toronto-ON-M1C-1G7/2062400814_zpid/,"11 Bush Dr, Toronto, ON M1C 1G7",M1C1G7,43.7565,-79.17555
https://photos.zillowstatic.com/fp/3cf67dcae1b2ee1f66d078cef231ee4a-p_e.jpg,https://www.zillow.com/homedetails/50-Orchid-Place-Dr-28-Toronto-ON-M1B-0C4/2062396662_zpid/,"50 Orchid Place Dr #28, Toronto, ON M1B 0C4",M1B0C4,43.676304,-79.383804
https://photos.zillowstatic.com/fp/9ebb2b929881ab3217ed764e03db3e26-p_e.jpg,https://www.zillow.com/homedetails/10-Yonge-St-3111-Toronto-ON-M5E-1R4/2062415785_zpid/,"10 Yonge St #3111, Toronto, ON M5E 1R4",M5E1R4,43.74162,-79.53747
https://photos.zillowstatic.com/fp/2b5440a874eb09d68d9aecdd3dc06fcd-p_e.jpg,https://www.zillow.com/homedetails/11-Bogert-Ave-PENTHOUSE-3301-Toronto-ON-M2N-0H4/2062416254_zpid/,"11 Bogert Ave PENTHOUSE 3301, Toronto, ON M2N 0H4",M2N0H4,43.660446,-79.443794
https://photos.zillowstatic.com/fp/159913dbaca6b6f2f931d4b3db6bcddb-p_e.jpg,https://www.zillow.com/homedetails/25-Truman-Rd-Toronto-ON-M2L-2L4/2063427917_zpid/,"25 Truman Rd, Toronto, ON M2L 2L4",M2L2L4,43.68665,-79.39951
https://photos.zillowstatic.com/fp/e74929ad07ed9ae83e7aed043a116652-p_e.jpg,https://www.zillow.com/homedetails/29-Rosebank-Dr-S-802-Toronto-ON-M1B-5Y7/2062432491_zpid/,"29 Rosebank Dr S #802, Toronto, ON M1B 5Y7",M1B5Y7,43.804623,-79.20301
https://photos.zillowstatic.com/fp/ab2d682c021058e94ef0e27c47798f59-p_e.jpg,https://www.zillow.com/homedetails/96-Summerhill-Ave-Toronto-ON-M4T-1B2/2063157655_zpid/,"96 Summerhill Ave, Toronto, ON M4T 1B2",M4T1B2,43.667686,-79.37736
https://photos.zillowstatic.com/fp/3ef1bce7922011cd46dbe84592b7d2fa-p_e.jpg,https://www.zillow.com/homedetails/52-Firstbrooke-Rd-Toronto-ON-M4E-2L1/2062438324_zpid/,"52 Firstbrooke Rd, Toronto, ON M4E 2L1",M4E2L1,43.70754,-79.53077
https://photos.zillowstatic.com/fp/d296923798a8e7039e39d677a15c06fc-p_e.jpg,https://www.zillow.com/homedetails/1103-Leslie-St-405-Toronto-ON-M3C-4G8/2062410820_zpid/,"1103 Leslie St #405, Toronto, ON M3C 4G8",M3C4G8,43.640057,-79.58135
https://photos.zillowstatic.com/fp/44b90cfb959a3e6600784e0bcecf6911-p_e.jpg,https://www.zillow.com/homedetails/66-Portland-St-607-Toronto-ON-M5V-2M6/2062415602_zpid/,"66 Portland St #607, Toronto, ON M5V 2M6",M5V2M6,43.67654,-79.40561
https://photos.zillowstatic.com/fp/9f2d84cef5e3e8a13289b18b1f254120-p_e.jpg,https://www.zillow.com/homedetails/1-Neighbourhood-Ln-513-Toronto-ON-M8Y-0C2/2062404980_zpid/,"1 Neighbourhood Ln #513, Toronto, ON M8Y 0C2",M8Y0C2,43.621227,-79.48332
https://photos.zillowstatic.com/fp/b9a254333102174f0450232ff476b6cf-p_e.jpg,https://www.zillow.com/homedetails/306-Donlands-Ave-Toronto-ON-M4J-3R6/2062504806_zpid/,"306 Donlands Ave, Toronto, ON M4J 3R6",M4J3R6,43.74248,-79.19796
https://photos.zillowstatic.com/fp/78f2e2dd533df53c394bfd5d75661881-p_e.jpg,https://www.zillow.com/homedetails/94-Helena-Ave-Toronto-ON-M6G-2H2/2062429185_zpid/,"94 Helena Ave, Toronto, ON M6G 2H2",M6G2H2,43.72071,-79.48532
https://photos.zillowstatic.com/fp/e350abbe60e169531d1348de8c059c91-p_e.jpg,https://www.zillow.com/homedetails/123-Euclid-Ave-Toronto-ON-M6J-2J8/2062793487_zpid/,"123 Euclid Ave, Toronto, ON M6J 2J8",M6J2J8,43.707085,-79.39774
https://photos.zillowstatic.com/fp/3f025501f6d9e64042f41b78d21a39d5-p_e.jpg,https://www.zillow.com/homedetails/11-Checkers-Ct-Toronto-ON-M3N-1P9/2062534732_zpid/,"11 Checkers Ct, Toronto, ON M3N 1P9",M3N1P9,43.775124,-79.41383
https://photos.zillowstatic.com/fp/d6c82baf4ad00e22905c5920039978ce-p_e.jpg,https://www.zillow.com/homedetails/159-Dundas-East-St-2603-Toronto-ON-M5B-0A9/2062417292_zpid/,"159 Dundas East St #2603, Toronto, ON M5B 0A9",M5B0A9,43.640644,-79.558815
https://photos.zillowstatic.com/fp/9fb2720aa5e6da6bc80c24e3cc43025d-p_e.jpg,https://www.zillow.com/homedetails/23-Sheppard-Ave-E-UNIT-1410-Toronto-ON-M2N-0C8/2082729697_zpid/,"23 Sheppard Ave E UNIT 1410, Toronto, ON M2N 0C8",M2N0C8,43.780827,-79.1352
https://photos.zillowstatic.com/fp/cef1a7865ec2d44b95cee000fd9bab0c-p_e.jpg,https://www.zillow.com/homedetails/121-McMahon-Dr-902-Toronto-ON-M2K-0C1/2062413855_zpid/,"121 McMahon Dr #902, Toronto, ON M2K 0C1",M2K0C1,43.65995,-79.38495
https://photos.zillowstatic.com/fp/75582f046ce9050f7bef9e5b755ecdaf-p_e.jpg,https://www.zillow.com/homedetails/251-Soudan-Ave-Toronto-ON-M4S-1W2/2062404955_zpid/,"251 Soudan Ave, Toronto, ON M4S 1W2",M4S1W2,43.678413,-79.450935
https://photos.zillowstatic.com/fp/8555155c5abaa67efe3c0ef3d033cb7d-p_e.jpg,https://www.zillow.com/homedetails/37-Olive-Ave-Toronto-ON-M6G-1T7/2062428360_zpid/,"37 Olive Ave, Toronto, ON M6G 1T7",M6G1T7,43.641903,-79.44008
https://photos.zillowstatic.com/fp/d50d7e78f933668e6c540228b89904bc-p_e.jpg,https://www.zillow.com/homedetails/14-York-St-UNIT-6611-Toronto-ON-M5J-0B1/2070848958_zpid/,"14 York St UNIT 6611, Toronto, ON M5J 0B1",M5J0B1,43.68695,-79.32819
https://photos.zillowstatic.com/fp/cedd987177b54e3b1210b1f691957739-p_e.jpg,https://www.zillow.com/homedetails/77-Shuter-St-516-Toronto-ON-M5B-0B8/2071887760_zpid/,"77 Shuter St #516, Toronto, ON M5B 0B8",M5B0B8,43.75248,-79.2509
https://photos.zillowstatic.com/fp/7be22adda5200fda23675f8430a944ad-p_e.jpg,https://www.zillow.com/homedetails/4-Elsinore-Path-UNIT-703-Toronto-ON-M8V-4G7/2062459076_zpid/,"4 Elsinore Path UNIT 703, Toronto, ON M8V 4G7",M8V4G7,43.64768,-79.39692
https://photos.zillowstatic.com/fp/d1b368bacc6465004f036f21791e3025-p_e.jpg,https://www.zillow.com/homedetails/133-Wynford-Dr-1401-Toronto-ON-M3C-0J5/2062416665_zpid/,"133 Wynford Dr #1401, Toronto, ON M3C 0J5",M3C0J5,43.726513,-79.25346
"https://maps.googleapis.com/maps/api/staticmap?mobile=false&sensor=true&maptype=satellite&size=575x242&zoom=17&center=43.78096389770508,-79.24978637695312&key=AIzaSyBJsNQO5ZeG-XAbqqWLKwG08fWITSxg33w&signature=7EIWA4h53jilu7r-wJFf4XjMdq4=",https://www.zillow.com/homedetails/88-Corporate-Dr-705-Toronto-ON-M1H-3G6/2086916886_zpid/,"88 Corporate Dr #705, Toronto, ON M1H 3G6",M1H3G6,43.703594,-79.52486
https://photos.zillowstatic.com/fp/e9d305f830a62c625b5dcb050d3af259-p_e.jpg,https://www.zillow.com/homedetails/21-Iceboat-Ter-825-Toronto-ON-M5V-4A9/2062411611_zpid/,"21 Iceboat Ter #825, Toronto, ON M5V 4A9",M5V4A9,43.642082,-79.38281
https://photos.zillowstatic.com/fp/067fae90277975a27fb0dad0ba8543b1-p_e.jpg,https://www.zillow.com/homedetails/785-Browns-Line-603-Toronto-ON-M8W-3V8/2062602728_zpid/,"785 Browns Line #603, Toronto, ON M8W 3V8",M8W3V8,43.76464,-79.21004
https://photos.zillowstatic.com/fp/62375a3aef3eed3310c9add2f2057a85-p_e.jpg,https://www.zillow.com/homedetails/95-Lombard-St-505-Toronto-ON-M5C-2V3/2063148243_zpid/,"95 Lombard St #505, Toronto, ON M5C 2V3",M5C2V3,43.60032,-79.52637
https://photos.zillowstatic.com/fp/9b586931a4290ca34a1bdbea798b8d38-p_e.jpg,https://www.zillow.com/homedetails/225-Village-Green-Sq-3008-Toronto-ON-M1S-0N4/2062411595_zpid/,"225 Village Green Sq #3008, Toronto, ON M1S 0N4",M1S0N4,43.736862,-79.476036
https://photos.zillowstatic.com/fp/d461cd7828dbccdda14149e8ee57421d-p_e.jpg,https://www.zillow.com/homedetails/20-Minowan-Miikan-Ln-1031-Toronto-ON-M6J-0E5/2062401086_zpid/,"20 Minowan Miikan Ln #1031, Toronto, ON M6J 0E5",M6J0E5,43.725964,-79.48916
https://photos.zillowstatic.com/fp/8ec056acd05ab0d628ea5f27a3fabc28-p_e.jpg,https://www.zillow.com/homedetails/2-Ottawa-St-Toronto-ON-M4T-2B6/2062486833_zpid/,"2 Ottawa St, Toronto, ON M4T 2B6",M4T2B6,43.597107,-79.50105
https://photos.zillowstatic.com/fp/516db736402d36e121ccb42f96242a1f-p_e.jpg,https://www.zillow.com/homedetails/8-Eglinton-Ave-E-4906-Toronto-ON-M4P-0C1/2069499992_zpid/,"8 Eglinton Ave E #4906, Toronto, ON M4P 0C1",M4P0C1,43.6843,-79.28408
https://photos.zillowstatic.com/fp/60af75a0662a1d584af1ae0232651e97-p_e.jpg,https://www.zillow.com/homedetails/2330-Bridletowne-Cir-503-Toronto-ON-M1W-3P6/2062416884_zpid/,"2330 Bridletowne Cir #503, Toronto, ON M1W 3P6",M1W3P6,43.76034,-79.26538
https://photos.zillowstatic.com/fp/821abc9a446ec0f6d6af2596bda73ef2-p_e.jpg,https://www.zillow.com/homedetails/23-Valhalla-Inn-Rd-47-Toronto-ON-M9B-0B3/2062528825_zpid/,"23 Valhalla Inn Rd #47, Toronto, ON M9B 0B3",M9B0B3,43.670715,-79.48868
https://photos.zillowstatic.com/fp/e9c0ffadef4fad262a5ba1aab48cd97c-p_e.jpg,https://www.zillow.com/homedetails/90-Stadium-Rd-2103-Toronto-ON-M5V-3W5/2062731732_zpid/,"90 Stadium Rd #2103, Toronto, ON M5V 3W5",M5V3W5,43.752544,-79.30932
https://photos.zillowstatic.com/fp/8fb9444f8a71d35baf0985ada9284712-p_e.jpg,https://www.zillow.com/homedetails/5-Marine-Parade-Dr-414-Toronto-ON-M8V-4B4/2062638855_zpid/,"5 Marine Parade Dr #414, Toronto, ON M8V 4B4",M8V4B4,43.64684,-79.39027
https://photos.zillowstatic.com/fp/ce61e25595be9c125736f8e01b199683-p_e.jpg,https://www.zillow.com/homedetails/38-Samson-Cres-Toronto-ON-M1G-1N4/2062459161_zpid/,"38 Samson Cres, Toronto, ON M1G 1N4",M1G1N4,43.643097,-79.39164
https://photos.zillowstatic.com/fp/d29835c750039da3eec0348cb315c8b3-p_e.jpg,https://www.zillow.com/homedetails/2221-Yonge-St-4110-Toronto-ON-M4S-0B8/2062429441_zpid/,"2221 Yonge St #4110, Toronto, ON M4S 0B8",M4S0B8,43.74104,-79.22192
https://photos.zillowstatic.com/fp/36f4cf1fbcc73d9695e38aa37be20556-p_e.jpg,https://www.zillow.com/homedetails/25-Viking-Ln-PENTHOUSE-54-Toronto-ON-M9B-0A1/2071831366_zpid/,"25 Viking Ln PENTHOUSE 54, Toronto, ON M9B 0A1",M9B0A1,43.636944,-79.46893
https://photos.zillowstatic.com/fp/2ee6307246c750a8fd5a19a7a38b0682-p_e.jpg,https://www.zillow.com/homedetails/23-Lorraine-Dr-RG17-Toronto-ON-M2N-6Z6/2062761574_zpid/,"23 Lorraine Dr #RG17, Toronto, ON M2N 6Z6",M2N6Z6,43.79118,-79.1386
"https://maps.googleapis.com/maps/api/staticmap?mobile=false&sensor=true&maptype=satellite&size=575x242&zoom=17&center=43.70708465576172,-79.39774322509766&key=AIzaSyBJsNQO5ZeG-XAbqqWLKwG08fWITSxg33w&signature=QG-tUrV7msxxLRhB1P-R6nMaiw4=",https://www.zillow.com/homedetails/8-Eglinton-Ave-E-1505-Toronto-ON-M4P-0C1/2068378130_zpid/,"8 Eglinton Ave E #1505, Toronto, ON M4P 0C1",M4P0C1,43.763973,-79.21324
https://photos.zillowstatic.com/fp/bc4fb86fefcca9bead78cfd2787b19df-p_e.jpg,https://www.zillow.com/homedetails/111-Saint-Clair-Ave-W-UNIT-508-Toronto-ON-M4V-1N5/2062414152_zpid/,"111 Saint Clair Ave W UNIT 508, Toronto, ON M4V 1N5",M4V1N5,43.75516,-79.29537
https://photos.zillowstatic.com/fp/bdbb0a4da9bde6ecb3f8faac954aed18-p_e.jpg,https://www.zillow.com/homedetails/37-Sherbourne-St-304-Toronto-ON-M5A-2P6/2086916486_zpid/,"37 Sherbourne St #304, Toronto, ON M5A 2P6",M5A2P6,43.64159,-79.415764
https://photos.zillowstatic.com/fp/fdd0dc5da6e3576d7d4efd37e521c7ce-p_e.jpg,https://www.zillow.com/homedetails/18-Sommerset-Way-702-Toronto-ON-M2N-6X5/2083515881_zpid/,"18 Sommerset Way #702, Toronto, ON M2N 6X5",M2N6X5,43.649178,-79.3771
https://photos.zillowstatic.com/fp/934f89e398f16ab9dfd1944f400012cd-p_e.jpg,https://www.zillow.com/homedetails/1030-King-St-W-441-Toronto-ON-M6K-0B4/2062401817_zpid/,"1030 King St W #441, Toronto, ON M6K 0B4",M6K0B4,43.77653,-79.412445
https://photos.zillowstatic.com/fp/d47e6fce1e94d38f8e09677320d5bf60-p_e.jpg,https://www.zillow.com/homedetails/7-Grenville-St-1003-Toronto-ON-M4Y-0E9/2062403172_zpid/,"7 Grenville St #1003, Toronto, ON M4Y 0E9",M4Y0E9,43.754654,-79.51544
https://photos.zillowstatic.com/fp/10af1d4b8b9fa141dcb757490cc76912-p_e.jpg,https://www.zillow.com/homedetails/10-Delisle-Ave-1003-Toronto-ON-M4V-3C6/2071811365_zpid/,"10 Delisle Ave #1003, Toronto, ON M4V 3C6",M4V3C6,43.66178,-79.38422
https://photos.zillowstatic.com/fp/454b9e19ea7c9a64fb9fcac5136be37e-p_e.jpg,https://www.zillow.com/homedetails/36-Robinson-St-Toronto-ON-M6J-1L2/2062497237_zpid/,"36 Robinson St, Toronto, ON M6J 1L2",M6J1L2,43.661762,-79.38363
https://photos.zillowstatic.com/fp/b84f238d8dab15c6879ae4666d6f21db-p_e.jpg,https://www.zillow.com/homedetails/775-King-St-W-426-Toronto-ON-M5V-2K3/2071830201_zpid/,"775 King St W #426, Toronto, ON M5V 2K3",M5V2K3,43.79661,-79.28926
https://photos.zillowstatic.com/fp/f89e174c4e556a7911a46bd55f3c36b8-p_e.jpg,https://www.zillow.com/homedetails/1007-The-Queensway-Toronto-ON-M8Z-6C7/2062411603_zpid/,"1007 The Queensway, Toronto, ON M8Z 6C7",M8Z6C7,43.799667,-79.31624
https://photos.zillowstatic.com/fp/11adb4444d5141fb35dcd5522bb9a512-p_e.jpg,https://www.zillow.com/homedetails/21-Haverson-Blvd-Toronto-ON-M6M-3J5/2082799283_zpid/,"21 Haverson Blvd, Toronto, ON M6M 3J5",M6M3J5,43.68549,-79.46486
https://photos.zillowstatic.com/fp/03ff65ab334ed25245b06e8128170584-p_e.jpg,https://www.zillow.com/homedetails/8-York-St-3112-Toronto-ON-M5J-2Y2/2071892796_zpid/,"8 York St #3112, Toronto, ON M5J 2Y2",M5J2Y2,43.727074,-79.52298
https://photos.zillowstatic.com/fp/f891fcde8dadce34dd0662c4648e07ad-p_e.jpg,https://www.zillow.com/homedetails/1863-Queen-St-E-PENTHOUSE-516-Toronto-ON-M4L-3Y6/2069973769_zpid/,"1863 Queen St E PENTHOUSE 516, Toronto, ON M4L 3Y6",M4L3Y6,43.712788,-79.546394
https://photos.zillowstatic.com/fp/2cbfc8e16cc90fdcca8bab6ef748788e-p_e.jpg,https://www.zillow.com/homedetails/71-29th-St-Toronto-ON-M8W-3A7/2062396698_zpid/,"71 29th St, Toronto, ON M8W 3A7",M8W3A7,43.70161,-79.446526
https://photos.zillowstatic.com/fp/bb521c842e97711d53526cd2f84867d4-p_e.jpg,https://www.zillow.com/homedetails/113-Yorkminster-Rd-Toronto-ON-M2P-1M5/2062429390_zpid/,"113 Yorkminster Rd, Toronto, ON M2P 1M5",M2P1M5,43.74205,-79.57401
https://photos.zillowstatic.com/fp/4354a72d7ce3ef48e42773c222af3a3d-p_e.jpg,https://www.zillow.com/homedetails/525-Wilson-Ave-212-Toronto-ON-M3H-0A7/2062411607_zpid/,"525 Wilson Ave #212, Toronto, ON M3H 0A7",M3H0A7,43.70711,-79.272026
https://photos.zillowstatic.com/fp/b7373f84eadfef3ef431c2241b51e62b-p_e.jpg,https://www.zillow.com/homedetails/50-Charles-St-E-1805-Toronto-ON-M4Y-0C3/2077061096_zpid/,"50 Charles St E #1805, Toronto, ON M4Y 0C3",M4Y0C3,43.805866,-79.26312
"https://maps.googleapis.com/maps/api/staticmap?mobile=false&sensor=true&maptype=satellite&size=575x242&zoom=17&center=43.77339172363281,-79.41304016113281&key=AIzaSyBJsNQO5ZeG-XAbqqWLKwG08fWITSxg33w&signature=N-ucJ1PLb8Hwnm4ZM6CJ-46713U=",https://www.zillow.com/homedetails/8-McKee-Ave-1008-Toronto-ON-M2N-7E5/2065798567_zpid/,"8 McKee Ave #1008, Toronto, ON M2N 7E5",M2N7E5,43.64353,-79.535805
https://photos.zillowstatic.com/fp/9649ccd8a7468246e4dbe693ba2ff632-p_e.jpg,https://www.zillow.com/homedetails/6-Struthers-St-Toronto-ON-M8V-1Y1/2062428928_zpid/,"6 Struthers St, Toronto, ON M8V 1Y1",M8V1Y1,43.74569,-79.25178
https://photos.zillowstatic.com/fp/1ae0f88d694445d3f49caa2b579c0e25-p_e.jpg,https://www.zillow.com/homedetails/94B-Admiral-Rd-Toronto-ON-M5R-2L6/2062427851_zpid/,"94B Admiral Rd, Toronto, ON M5R 2L6",M5R2L6,43.653854,-79.41238
https://photos.zillowstatic.com/fp/4210d630e3457951b5c7fa5a2e162f5b-p_e.jpg,https://www.zillow.com/homedetails/82-Ainsdale-Rd-Toronto-ON-M1R-3Z2/2062433189_zpid/,"82 Ainsdale Rd, Toronto, ON M1R 3Z2",M1R3Z2,43.756294,-79.51994
https://photos.zillowstatic.com/fp/d9255b7c3b5f419440e1b43a11ad0f44-p_e.jpg,https://www.zillow.com/homedetails/70-Dalmatian-Cres-Toronto-ON-M1C-4W7/2066470261_zpid/,"70 Dalmatian Cres, Toronto, ON M1C 4W7",M1C4W7,43.667645,-79.3439
https://photos.zillowstatic.com/fp/e0214b6f0e0305dbc62c3cc0203595fe-p_e.jpg,https://www.zillow.com/homedetails/224-King-St-W-4302-Toronto-ON-M5H-0A6/2064093724_zpid/,"224 King St W #4302, Toronto, ON M5H 0A6",M5H0A6,43.76808,-79.22361
https://photos.zillowstatic.com/fp/4a52966af0d44b2dbeedb0b51fe61352-p_e.jpg,https://www.zillow.com/homedetails/75-Upper-Canada-Dr-4-Toronto-ON-M2P-2A2/2071837998_zpid/,"75 Upper Canada Dr #4, Toronto, ON M2P 2A2",M2P2A2,43.82058,-79.26434
https://photos.zillowstatic.com/fp/73738972fa3931ca952b9ebb376c8136-p_e.jpg,https://www.zillow.com/homedetails/4060-Lawrence-Ave-E-109-Toronto-ON-M1E-4V4/2062796132_zpid/,"4060 Lawrence Ave E #109, Toronto, ON M1E 4V4",M1E4V4,43.74892,-79.45821
https://photos.zillowstatic.com/fp/2db34138aa0f899112565b4f0bd47bd7-p_e.jpg,https://www.zillow.com/homedetails/73-Heale-Ave-Toronto-ON-M1N-3X9/2071850164_zpid/,"73 Heale Ave, Toronto, ON M1N 3X9",M1N3X9,43.660137,-79.38587
https://photos.zillowstatic.com/fp/0fe2ba3f574f88cbacdf2916f4a77c54-p_e.jpg,https://www.zillow.com/homedetails/7-King-St-E-2206-Toronto-ON-M5C-3C5/2062679259_zpid/,"7 King St E #2206, Toronto, ON M5C 3C5",M5C3C5,43.79192,-79.34072
https://photos.zillowstatic.com/fp/a2643199dc7a15879b036ffe71b3b099-p_e.jpg,https://www.zillow.com/homedetails/17-Calvin-Ave-Toronto-ON-M2N-5E4/2076670772_zpid/,"17 Calvin Ave, Toronto, ON M2N 5E4",M2N5E4,43.68922,-79.4767
https://photos.zillowstatic.com/fp/300b040f5a4ea6a7303c3177a37727fb-p_e.jpg,https://www.zillow.com/homedetails/157-Hannaford-St-Toronto-ON-M4E-3G9/2062430985_zpid/,"157 Hannaford St, Toronto, ON M4E 3G9",M4E3G9,43.66459,-79.326675
https://photos.zillowstatic.com/fp/5a59ba24c932b72163a9fa8242cdb9e4-p_e.jpg,https://www.zillow.com/homedetails/1837-Eglinton-Ave-E-227-Toronto-ON-M4A-2Y4/2062396669_zpid/,"1837 Eglinton Ave E #227, Toronto, ON M4A 2Y4",M4A2Y4,43.768963,-79.240974
https://photos.zillowstatic.com/fp/0d02b5305960d0f0bdbafabc4c195e97-p_e.jpg,https://www.zillow.com/homedetails/234-Albion-Rd-503-Toronto-ON-M9W-6A5/2062671770_zpid/,"234 Albion Rd #503, Toronto, ON M9W 6A5",M9W6A5,43.791332,-79.196335
https://photos.zillowstatic.com/fp/3bbe813af097bed6030aa8be43b98264-p_e.jpg,https://www.zillow.com/homedetails/775-King-St-W-221-Toronto-ON-M5V-2K3/2086916484_zpid/,"775 King St W #221, Toronto, ON M5V 2K3",M5V2K3,43.72842,-79.51234
https://photos.zillowstatic.com/fp/21f8e74eac0c9de2b391440e9f8af22a-p_e.jpg,https://www.zillow.com/homedetails/1730-Eglinton-Ave-E-7-Toronto-ON-M4A-2X9/2075697875_zpid/,"1730 Eglinton Ave E #7, Toronto, ON M4A 2X9",M4A2X9,43.667282,-79.56149
https://photos.zillowstatic.com/fp/91d5d7bdfe74bb63cb95264cb75019ce-p_e.jpg,https://www.zillow.com/homedetails/272-Hillcrest-Ave-Toronto-ON-M2N-3P4/2064738106_zpid/,"272 Hillcrest Ave, Toronto, ON M2N 3P4",M2N3P4,43.655254,-79.52845
https://photos.zillowstatic.com/fp/83de5162c922031e5656fb70403b9d2d-p_e.jpg,https://www.zillow.com/homedetails/30-Roehampton-Ave-709-Toronto-ON-M4P-0B9/2062429130_zpid/,"30 Roehampton Ave #709, Toronto, ON M4P 0B9",M4P0B9,43.76689,-79.330505
https://photos.zillowstatic.com/fp/013be07891973bdcdd6fd7b975d50019-p_e.jpg,https://www.zillow.com/homedetails/25-Carlton-St-911-Toronto-ON-M5B-1L4/2078281848_zpid/,"25 Carlton St #911, Toronto, ON M5B 1L4",M5B1L4,43.727238,-79.24191
https://photos.zillowstatic.com/fp/33d640aa3ba378262ca930146e9bdc3f-p_e.jpg,https://www.zillow.com/homedetails/16-Harbour-St-UNIT-5205-Toronto-ON-M5J-2Z7/2084767806_zpid/,"16 Harbour St UNIT 5205, Toronto, ON M5J 2Z7",M5J2Z7,43.75384,-79.27828
https://photos.zillowstatic.com/fp/a0c926a7983a38e5e0d2a4ab40a03da4-p_e.jpg,https://www.zillow.com/homedetails/90-Donegall-Dr-Toronto-ON-M4G-3G8/2062487843_zpid/,"90 Donegall Dr, Toronto, ON M4G 3G8",M4G3G8,43.68056,-79.33998
https://photos.zillowstatic.com/fp/338093bc0af6b524a3fc1b109ad9d7e3-p_e.jpg,https://www.zillow.com/homedetails/25-Dervock-Cres-6-Toronto-ON-M2K-0G7/2062429385_zpid/,"25 Dervock Cres #6, Toronto, ON M2K 0G7",M2K0G7,43.669098,-79.3339
https://photos.zillowstatic.com/fp/44d1e33958a7f959a3e5ba001b80f37b-p_e.jpg,https://www.zillow.com/homedetails/72-13th-St-Toronto-ON-M8V-3H6/2063062846_zpid/,"72 13th St, Toronto, ON M8V 3H6",M8V3H6,43.7377,-79.28003
https://photos.zillowstatic.com/fp/4140bff0dee7c9485391ebeec06640d0-p_e.jpg,https://www.zillow.com/homedetails/54-Venetian-Cres-Toronto-ON-M3N-2L8/2062429586_zpid/,"54 Venetian Cres, Toronto, ON M3N 2L8",M3N2L8,43.689037,-79.32008
https://photos.zillowstatic.com/fp/19f2a4deee2be6b018154b6c19239c8d-p_e.jpg,https://www.zillow.com/homedetails/272-Harvie-Ave-Toronto-ON-M6E-4K6/2062440545_zpid/,"272 Harvie Ave, Toronto, ON M6E 4K6",M6E4K6,43.68,-79.49925
https://photos.zillowstatic.com/fp/c0ef615ebbdd6bcfc9664a1b1894c0e7-p_e.jpg,https://www.zillow.com/homedetails/98-Tower-Dr-Toronto-ON-M1R-3P2/2062638729_zpid/,"98 Tower Dr, Toronto, ON M1R 3P2",M1R3P2,43.685017,-79.31152
https://photos.zillowstatic.com/fp/3b9a44c2f23850998b30044e23f7db5d-p_e.jpg,https://www.zillow.com/homedetails/296-Poyntz-Ave-Toronto-ON-M2N-1J9/2062644521_zpid/,"296 Poyntz Ave, Toronto, ON M2N 1J9",M2N1J9,43.69255,-79.341385
https://photos.zillowstatic.com/fp/587df00f0f26dae8f9cbddda942457db-p_e.jpg,https://www.zillow.com/homedetails/2778-Saint-Clair-Ave-E-Toronto-ON-M4B-1M9/2062426486_zpid/,"2778 Saint Clair Ave E, Toronto, ON M4B 1M9",M4B1M9,43.66903,-79.4646
https://photos.zillowstatic.com/fp/27652a29937303befb2d29d3051e9799-p_e.jpg,https://www.zillow.com/homedetails/30-Meadowglen-Pl-2606-Toronto-ON-M1G-2V5/2070847929_zpid/,"30 Meadowglen Pl #2606, Toronto, ON M1G 2V5",M1G2V5,43.786217,-79.36013
https://photos.zillowstatic.com/fp/3b4a8a3b73d45a7b0a8d343a58be314e-p_e.jpg,https://www.zillow.com/homedetails/3621-Lake-Shore-Blvd-W-110-Toronto-ON-M8W-4W1/2062919344_zpid/,"3621 Lake Shore Blvd W #110, Toronto, ON M8W 4W1",M8W4W1,43.68896,-79.33322
https://photos.zillowstatic.com/fp/4a1a6ae3b94250e2174626310c1e6391-p_e.jpg,https://www.zillow.com/homedetails/11-Charlotte-St-1401-Toronto-ON-M5V-0M6/2086916482_zpid/,"11 Charlotte St #1401, Toronto, ON M5V 0M6",M5V0M6,43.766895,-79.307144
https://photos.zillowstatic.com/fp/102c7267538d87968f8c2ca2f9ebab20-p_e.jpg,https://www.zillow.com/homedetails/165-Cherokee-Blvd-251-Toronto-ON-M2J-4T7/2062594078_zpid/,"165 Cherokee Blvd #251, Toronto, ON M2J 4T7",M2J4T7,43.65952,-79.33849
https://photos.zillowstatic.com/fp/6ba6fd932da9c5b1ff839ea5cd487361-p_e.jpg,https://www.zillow.com/homedetails/20-Bigham-Cres-Toronto-ON-M9C-5C6/2063006860_zpid/,"20 Bigham Cres, Toronto, ON M9C 5C6",M9C5C6,43.68732,-79.464935
https://photos.zillowstatic.com/fp/33203901945c39004c6e4d7ce269be88-p_e.jpg,https://www.zillow.com/homedetails/173-Valley-Rd-Toronto-ON-M2L-1G5/2063006906_zpid/,"173 Valley Rd, Toronto, ON M2L 1G5",M2L1G5,43.629753,-79.47548
https://photos.zillowstatic.com/fp/09deed2ccbbae801bbcba0c71d94fdbd-p_e.jpg,https://www.zillow.com/homedetails/1-Saint-Thomas-St-26A-Toronto-ON-M5S-3M5/2065128898_zpid/,"1 Saint Thomas St #26A, Toronto, ON M5S 3M5",M5S3M5,43.732132,-79.600426
https://photos.zillowstatic.com/fp/678c85dc0afe69ed5b8f80219befd828-p_e.jpg,https://www.zillow.com/homedetails/249-Highfield-Rd-Toronto-ON-M4L-2V4/2062481614_zpid/,"249 Highfield Rd, Toronto, ON M4L 2V4",M4L2V4,43.70848,-79.39752
"https://maps.googleapis.com/maps/api/staticmap?mobile=false&sensor=true&maptype=satellite&size=575x242&zoom=17&center=43.679840087890625,-79.3211898803711&key=AIzaSyBJsNQO5ZeG-XAbqqWLKwG08fWITSxg33w&signature=-g504SCrZCbdM8fyXDkV9bZdrm8=",https://www.zillow.com/homedetails/79-Hanson-St-Toronto-ON-M4C-5P3/2065798562_zpid/,"79 Hanson St, Toronto, ON M4C 5P3",M4C5P3,43.760906,-79.409004
https://photos.zillowstatic.com/fp/95eb1780a51d727c2cd449496c9e7c1b-p_e.jpg,https://www.zillow.com/homedetails/6-Coppermill-Dr-Toronto-ON-M9W-3Z2/2065424771_zpid/,"6 Coppermill Dr, Toronto, ON M9W 3Z2",M9W3Z2,43.67119,-79.48852
https://photos.zillowstatic.com/fp/a6795b02d99b471496c8030da6cd294d-p_e.jpg,https://www.zillow.com/homedetails/203-College-St-1004-Toronto-ON-M5T-0C8/2063080850_zpid/,"203 College St #1004, Toronto, ON M5T 0C8",M5T0C8,43.730312,-79.250786
https://photos.zillowstatic.com/fp/ef6442dd851a37aedbdd453611ba7b37-p_e.jpg,https://www.zillow.com/homedetails/30-Glen-Stewart-Cres-Toronto-ON-M4E-1P5/2062428618_zpid/,"30 Glen Stewart Cres, Toronto, ON M4E 1P5",M4E1P5,43.661777,-79.33495
https://photos.zillowstatic.com/fp/1595f754b4a8bdd308dfe2db51db205d-p_e.jpg,https://www.zillow.com/homedetails/298-Jarvis-St-1007-Toronto-ON-M5B-2M4/2062528821_zpid/,"298 Jarvis St #1007, Toronto, ON M5B 2M4",M5B2M4,43.716152,-79.54847
https://photos.zillowstatic.com/fp/c0789c55f749e81947be85a87a56d384-p_e.jpg,https://www.zillow.com/homedetails/211-Glencairn-Ave-Toronto-ON-M4R-1N3/2069958816_zpid/,"211 Glencairn Ave, Toronto, ON M4R 1N3",M4R1N3,43.644596,-79.44939
https://photos.zillowstatic.com/fp/b4d721e18739e20e71c648ec04e62043-p_e.jpg,https://www.zillow.com/homedetails/14-B-York-St-S-4611-Toronto-ON-M5J-0B1/2062396666_zpid/,"14 B York St S #4611, Toronto, ON M5J 0B1",M5J0B1,43.792233,-79.36156
https://photos.zillowstatic.com/fp/7a155a6757f91d4329613713f47cb0de-p_e.jpg,https://www.zillow.com/homedetails/16-McAdam-Ave-W-607-Toronto-ON-M6A-0B9/2062403176_zpid/,"16 McAdam Ave W #607, Toronto, ON M6A 0B9",M6A0B9,43.632755,-79.50495
https://photos.zillowstatic.com/fp/95168b903fec856b944820941769ca13-p_e.jpg,https://www.zillow.com/homedetails/824-Gerrard-St-E-Toronto-ON-M4M-1Y7/2062665670_zpid/,"824 Gerrard St E, Toronto, ON M4M 1Y7",M4M1Y7,43.746124,-79.23192
https://photos.zillowstatic.com/fp/bd4de9f91d3a1bb6b2ad08765f23d7eb-p_e.jpg,https://www.zillow.com/homedetails/128-Hazelton-Ave-502-Toronto-ON-M5R-2E5/2071891487_zpid/,"128 Hazelton Ave #502, Toronto, ON M5R 2E5",M5R2E5,43.70813,-79.44441
https://photos.zillowstatic.com/fp/b367f7c57ba95bf0ca2cc8ae41ea826a-p_e.jpg,https://www.zillow.com/homedetails/226A-Stibbard-Ave-Toronto-ON-M4P-2C3/2062713698_zpid/,"226A Stibbard Ave, Toronto, ON M4P 2C3",M4P2C3,43.762447,-79.24669
https://photos.zillowstatic.com/fp/630c29e641d97882fb95f8e400b7d7ef-p_e.jpg,https://www.zillow.com/homedetails/87-Allenby-Ave-Toronto-ON-M9W-1S7/2063487701_zpid/,"87 Allenby Ave, Toronto, ON M9W 1S7",M9W1S7,43.793755,-79.20562
https://photos.zillowstatic.com/fp/a3b0ca09293fa181d1878c3822f873f0-p_e.jpg,https://www.zillow.com/homedetails/100-Cassandra-Blvd-Toronto-ON-M3A-1S9/2062447354_zpid/,"100 Cassandra Blvd, Toronto, ON M3A 1S9",M3A1S9,43.749397,-79.407166
https://photos.zillowstatic.com/fp/d83e1304c8faef7087626d1bb3174ae7-p_e.jpg,https://www.zillow.com/homedetails/10-Rainsford-Rd-Toronto-ON-M4L-3N4/2062424245_zpid/,"10 Rainsford Rd, Toronto, ON M4L 3N4",M4L3N4,43.671852,-79.33419
https://photos.zillowstatic.com/fp/a91fe118279ea15cc63534627df4717e-p_e.jpg,https://www.zillow.com/homedetails/558-Arlington-Ave-Toronto-ON-M6C-3A5/2062425140_zpid/,"558 Arlington Ave, Toronto, ON M6C 3A5",M6C3A5,43.59727,-79.51128
https://photos.zillowstatic.com/fp/c44ff6569127697f8e4a8511a4fd05e8-p_e.jpg,https://www.zillow.com/homedetails/41-Ambleside-Ave-Toronto-ON-M8Z-2H8/2062428268_zpid/,"41 Ambleside Ave, Toronto, ON M8Z 2H8",M8Z2H8,43.670834,-79.34072
https://photos.zillowstatic.com/fp/0bea16e0ec487e09b6b9f11ebc224a63-p_e.jpg,https://www.zillow.com/homedetails/340-Dixon-Rd-1209-Toronto-ON-M9R-1T1/2062433080_zpid/,"340 Dixon Rd #1209, Toronto, ON M9R 1T1",M9R1T1,43.706703,-79.274185
https://photos.zillowstatic.com/fp/fd72cb0d266eb9889c36fd868a36331a-p_e.jpg,https://www.zillow.com/homedetails/20-Neilson-Ave-Toronto-ON-M1M-2S2/2062507876_zpid/,"20 Neilson Ave, Toronto, ON M1M 2S2",M1M2S2,43.641136,-79.40074
https://photos.zillowstatic.com/fp/36cd16ffc29e4c66cd15f71dc1ba49e3-p_e.jpg,https://www.zillow.com/homedetails/14-Morbank-Dr-Toronto-ON-M1V-2M2/2062438768_zpid/,"14 Morbank Dr, Toronto, ON M1V 2M2",M1V2M2,43.76112,-79.20615
https://photos.zillowstatic.com/fp/f713b0fde923c2b040ddb5f1d9a0a6c7-p_e.jpg,https://www.zillow.com/homedetails/230-Logan-Ave-Toronto-ON-M4M-2N3/2062524898_zpid/,"230 Logan Ave, Toronto, ON M4M 2N3",M4M2N3,43.791794,-79.300476
https://photos.zillowstatic.com/fp/4b4b68a390a21c4e21eb5f8cb9232473-p_e.jpg,https://www.zillow.com/homedetails/2-Orley-Ave-Toronto-ON-M4C-2B9/2062881290_zpid/,"2 Orley Ave, Toronto, ON M4C 2B9",M4C2B9,43.794613,-79.287476
https://photos.zillowstatic.com/fp/d61686d9c1040d29e2e96f9b90ebc799-p_e.jpg,https://www.zillow.com/homedetails/45-Sunrise-Ave-311-Toronto-ON-M4A-2S3/2062952143_zpid/,"45 Sunrise Ave #311, Toronto, ON M4A 2S3",M4A2S3,43.809177,-79.31293
https://photos.zillowstatic.com/fp/9d158d53aed8513e9b1e685e35ecab3f-p_e.jpg,https://www.zillow.com/homedetails/55-Grassington-Cres-Toronto-ON-M1G-1X4/2062459159_zpid/,"55 Grassington Cres, Toronto, ON M1G 1X4",M1G1X4,43.719097,-79.56454
https://photos.zillowstatic.com/fp/117c3bb5737e4e1e2246c1a48d164ddc-p_e.jpg,https://www.zillow.com/homedetails/68-Harvie-Ave-Toronto-ON-M6E-4K3/2062428542_zpid/,"68 Harvie Ave, Toronto, ON M6E 4K3",M6E4K3,43.68929,-79.33712
https://photos.zillowstatic.com/fp/bcce2a75710d6f37ef8e8222eae6a52f-p_e.jpg,https://www.zillow.com/homedetails/31-Maclennan-Ave-Toronto-ON-M4W-2Y5/2071869968_zpid/,"31 Maclennan Ave, Toronto, ON M4W 2Y5",M4W2Y5,43.645622,-79.39193
https://photos.zillowstatic.com/fp/75b67f857015d1687033aa177c935340-p_e.jpg,https://www.zillow.com/homedetails/300-Balliol-St-508-Toronto-ON-M4S-3G6/2062429021_zpid/,"300 Balliol St #508, Toronto, ON M4S 3G6",M4S3G6,43.757484,-79.28432
https://photos.zillowstatic.com/fp/d374cd723341910d6195a0987e07cf88-p_e.jpg,https://www.zillow.com/homedetails/5-Soudan-Ave-2605-Toronto-ON-M4S-0B1/2062401819_zpid/,"5 Soudan Ave #2605, Toronto, ON M4S 0B1",M4S0B1,43.781303,-79.306755
https://photos.zillowstatic.com/fp/c6b137f7dd58d215b6f01042e318cd0e-p_e.jpg,https://www.zillow.com/homedetails/390-Cherry-St-604-Toronto-ON-M5A-0E2/2062403174_zpid/,"390 Cherry St #604, Toronto, ON M5A 0E2",M5A0E2,43.611427,-79.49034
https://photos.zillowstatic.com/fp/d121292bde9509dcf6956dd61857e98b-p_e.jpg,https://www.zillow.com/homedetails/2-Thurrock-Rd-Toronto-ON-M3L-1P6/2063006813_zpid/,"2 Thurrock Rd, Toronto, ON M3L 1P6",M3L1P6,43.76323,-79.26073
https://photos.zillowstatic.com/fp/eb0bef974dcb0dae19f05e113d15e79f-p_e.jpg,https://www.zillow.com/homedetails/29-Statesman-Sq-Toronto-ON-M1S-4H7/2062473122_zpid/,"29 Statesman Sq, Toronto, ON M1S 4H7",M1S4H7,43.656322,-79.35446
https://photos.zillowstatic.com/fp/e8e803dfd024aa6a6ac1438380081a6e-p_e.jpg,https://www.zillow.com/homedetails/101-9th-St-Toronto-ON-M8V-3E5/2062424191_zpid/,"101 9th St, Toronto, ON M8V 3E5",M8V3E5,43.672474,-79.32505
https://photos.zillowstatic.com/fp/f83df9e23be5830c91c56a065b0728c8-p_e.jpg,https://www.zillow.com/homedetails/1029-King-St-W-1016-Toronto-ON-M6K-3M9/2062443810_zpid/,"1029 King St W #1016, Toronto, ON M6K 3M9",M6K3M9,43.68016,-79.55986
https://photos.zillowstatic.com/fp/2a6fe46f0de4b1271469882f1ea2350b-p_e.jpg,https://www.zillow.com/homedetails/10-Wellesley-Pl-104-Toronto-ON-M4Y-1B1/2062404981_zpid/,"10 Wellesley Pl #104, Toronto, ON M4Y 1B1",M4Y1B1,43.658794,-79.416245
"https://maps.googleapis.com/maps/api/staticmap?mobile=false&sensor=true&maptype=satellite&size=575x242&zoom=17&center=43.72757339477539,-79.4180679321289&key=AIzaSyBJsNQO5ZeG-XAbqqWLKwG08fWITSxg33w&signature=2wcklD1MXw4khdBZS3kHW5YAtRg=",https://www.zillow.com/homedetails/1700-Avenue-Rd-705-Toronto-ON-M5M-3Y4/2071220163_zpid/,"1700 Avenue Rd #705, Toronto, ON M5M 3Y4",M5M3Y4,43.78818,-79.26114
https://photos.zillowstatic.com/fp/21d4c9e30ac46851fe244021a09d5d04-p_e.jpg,https://www.zillow.com/homedetails/246-Edenbridge-Dr-Toronto-ON-M9A-3H3/2072600890_zpid/,"246 Edenbridge Dr, Toronto, ON M9A 3H3",M9A3H3,43.67779,-79.28999
https://photos.zillowstatic.com/fp/07285a2bd7159daee1971fe5c2858f0a-p_e.jpg,https://www.zillow.com/homedetails/1121-Steeles-Ave-W-PENTHOUSE-107-Toronto-ON-M2R-3W7/2062403678_zpid/,"1121 Steeles Ave W PENTHOUSE 107, Toronto, ON M2R 3W7",M2R3W7,43.658028,-79.41929
https://photos.zillowstatic.com/fp/35548edfa46bbe3cf029125c62bdbb6b-p_e.jpg,https://www.zillow.com/homedetails/27-Oakridge-Dr-Toronto-ON-M1M-2A5/2062424210_zpid/,"27 Oakridge Dr, Toronto, ON M1M 2A5",M1M2A5,43.80022,-79.231445
https://photos.zillowstatic.com/fp/dec0e34c86dc35ea655925cb71cd08cb-p_e.jpg,https://www.zillow.com/homedetails/157-Princess-Anne-Cres-Toronto-ON-M9A-2R7/2062453368_zpid/,"157 Princess Anne Cres, Toronto, ON M9A 2R7",M9A2R7,43.678528,-79.30654
https://photos.zillowstatic.com/fp/c5b0cdb54e9b98502c26fb683e694f37-p_e.jpg,https://www.zillow.com/homedetails/100-Mornelle-Ct-1091-Toronto-ON-M1E-4X2/2078004672_zpid/,"100 Mornelle Ct #1091, Toronto, ON M1E 4X2",M1E4X2,43.609383,-79.495865
https://photos.zillowstatic.com/fp/73e475488223d895b291c1b15f5839d9-p_e.jpg,https://www.zillow.com/homedetails/34-Mozart-Ave-Toronto-ON-M1K-2V9/2082728456_zpid/,"34 Mozart Ave, Toronto, ON M1K 2V9",M1K2V9,43.640266,-79.39601
https://photos.zillowstatic.com/fp/3b1a3d26fc8de1a3144153a3a8cc5a4a-p_e.jpg,https://www.zillow.com/homedetails/12-Foxwarren-Dr-Toronto-ON-M2K-1L2/2062424234_zpid/,"12 Foxwarren Dr, Toronto, ON M2K 1L2",M2K1L2,43.70545,-79.52685
https://photos.zillowstatic.com/fp/28466ee05cc7686f9939036868fbd0a5-p_e.jpg,https://www.zillow.com/homedetails/660-Sheppard-Ave-E-803B-Toronto-ON-M2K-3E5/2062417183_zpid/,"660 Sheppard Ave E #803B, Toronto, ON M2K 3E5",M2K3E5,43.800514,-79.226036
https://photos.zillowstatic.com/fp/2c38b96af88705dff52d08743e79c696-p_e.jpg,https://www.zillow.com/homedetails/361-Front-St-W-2708-Toronto-ON-M5V-3R5/2062429386_zpid/,"361 Front St W #2708, Toronto, ON M5V 3R5",M5V3R5,43.732437,-79.233696
https://photos.zillowstatic.com/fp/f5cc81f94d21e9fd673adebd8630e8f0-p_e.jpg,https://www.zillow.com/homedetails/286-Hillmount-Ave-Toronto-ON-M6B-1Y4/2064180958_zpid/,"286 Hillmount Ave, Toronto, ON M6B 1Y4",M6B1Y4,43.71137,-79.29362
https://photos.zillowstatic.com/fp/9ab71180f9ff36353ef992c09baab357-p_e.jpg,https://www.zillow.com/homedetails/47-Norlong-Blvd-Toronto-ON-M4C-3W8/2062473125_zpid/,"47 Norlong Blvd, Toronto, ON M4C 3W8",M4C3W8,43.738888,-79.22145
https://photos.zillowstatic.com/fp/7a7afbc56a62b7c6aadc2040caf2c988-p_e.jpg,https://www.zillow.com/homedetails/45-Southlawn-Dr-Toronto-ON-M1S-1H9/2062464559_zpid/,"45 Southlawn Dr, Toronto, ON M1S 1H9",M1S1H9,43.66192,-79.435135
https://photos.zillowstatic.com/fp/9405f09237019e908309e59babb03676-p_e.jpg,https://www.zillow.com/homedetails/90-Dunthorne-Ct-Toronto-ON-M1B-2S9/2062404954_zpid/,"90 Dunthorne Ct, Toronto, ON M1B 2S9",M1B2S9,43.718952,-79.58962
https://photos.zillowstatic.com/fp/5e82cebb77ee85bc4c7b69863f483ad4-p_e.jpg,https://www.zillow.com/homedetails/359-Harvie-Ave-Toronto-ON-M6E-4L6/2071854811_zpid/,"359 Harvie Ave, Toronto, ON M6E 4L6",M6E4L6,43.707603,-79.37483
https://photos.zillowstatic.com/fp/633afd7a73fd0056cfef05eaf3682e3c-p_e.jpg,https://www.zillow.com/homedetails/844-Danforth-Rd-Toronto-ON-M1K-1H5/2062404965_zpid/,"844 Danforth Rd, Toronto, ON M1K 1H5",M1K1H5,43.74297,-79.23355
https://photos.zillowstatic.com/fp/daaffb240834c1109e1101682625a0a5-p_e.jpg,https://www.zillow.com/homedetails/32-Wiley-Ave-Toronto-ON-M4J-3W4/2062481219_zpid/,"32 Wiley Ave, Toronto, ON M4J 3W4",M4J3W4,43.6702,-79.42747
https://photos.zillowstatic.com/fp/1e6be3c0167d91d849a287903cc25525-p_e.jpg,https://www.zillow.com/homedetails/62-Hadrian-Dr-Toronto-ON-M9W-1V4/2062403588_zpid/,"62 Hadrian Dr, Toronto, ON M9W 1V4",M9W1V4,43.731415,-79.32857
https://photos.zillowstatic.com/fp/c47803621a1c68badf6bc139267e838c-p_e.jpg,https://www.zillow.com/homedetails/3-Marine-Parade-Dr-UNIT-508-Toronto-ON-M8V-3Z5/2062698404_zpid/,"3 Marine Parade Dr UNIT 508, Toronto, ON M8V 3Z5",M8V3Z5,43.805504,-79.18544
https://photos.zillowstatic.com/fp/55c386c26f806bd3319da9f527bffbbe-p_e.jpg,https://www.zillow.com/homedetails/118-Hamilton-St-Toronto-ON-M4M-2C8/2064132602_zpid/,"118 Hamilton St, Toronto, ON M4M 2C8",M4M2C8,43.723248,-79.59154
https://photos.zillowstatic.com/fp/5f947451b67f8553ab673e44157bbe4c-p_e.jpg,https://www.zillow.com/homedetails/60-Shuter-St-2110-Toronto-ON-M5B-1B1/2071835731_zpid/,"60 Shuter St #2110, Toronto, ON M5B 1B1",M5B1B1,43.689976,-79.35482
https://photos.zillowstatic.com/fp/8e6b83482ea31053ca4fcbca032c3a63-p_e.jpg,https://www.zillow.com/homedetails/177-Hastings-Ave-Toronto-ON-M4L-2L5/2062424247_zpid/,"177 Hastings Ave, Toronto, ON M4L 2L5",M4L2L5,43.66846,-79.33108
https://photos.zillowstatic.com/fp/b5c138ae2c1bfdcb6b9bb1e54f267e72-p_e.jpg,https://www.zillow.com/homedetails/30-Endean-Ave-Toronto-ON-M4M-1W6/2062424238_zpid/,"30 Endean Ave, Toronto, ON M4M 1W6",M4M1W6,43.728443,-79.462074
https://photos.zillowstatic.com/fp/51f573e9ddad8e130ba78ef1aee7f758-p_e.jpg,https://www.zillow.com/homedetails/29-Rosebank-Dr-1809-Toronto-ON-M1B-5Y7/2062438327_zpid/,"29 Rosebank Dr #1809, Toronto, ON M1B 5Y7",M1B5Y7,43.683147,-79.45284
https://photos.zillowstatic.com/fp/c48d01e989f39021f1d7d53db8409ddc-p_e.jpg,https://www.zillow.com/homedetails/5-Old-Sheppard-Ave-204-Toronto-ON-M2J-4K3/2063023417_zpid/,"5 Old Sheppard Ave #204, Toronto, ON M2J 4K3",M2J4K3,43.665386,-79.38802
https://photos.zillowstatic.com/fp/e38209ac18c695d531633ee26585eb4f-p_e.jpg,https://www.zillow.com/homedetails/22-Leader-Ln-UNIT-316-Toronto-ON-M5E-0B2/2071859314_zpid/,"22 Leader Ln UNIT 316, Toronto, ON M5E 0B2",M5E0B2,43.66159,-79.35221
https://photos.zillowstatic.com/fp/88a01b04ef43a69f6596e3ce86ad05d3-p_e.jpg,https://www.zillow.com/homedetails/16-Nightingale-Pl-Toronto-ON-M1G-2E8/2063228310_zpid/,"16 Nightingale Pl, Toronto, ON M1G 2E8",M1G2E8,43.678417,-79.34995
https://photos.zillowstatic.com/fp/f6582fe1125b754c1e8ea153881ef21c-p_e.jpg,https://www.zillow.com/homedetails/24-Kenway-Rd-Toronto-ON-M8Z-4W8/2062937503_zpid/,"24 Kenway Rd, Toronto, ON M8Z 4W8",M8Z4W8,43.671,-79.3289
https://photos.zillowstatic.com/fp/464bbdc4d29961580dd3d8e44d624ea8-p_e.jpg,https://www.zillow.com/homedetails/72-Prosperity-Ptwy-Toronto-ON-M1B-4G7/2062589608_zpid/,"72 Prosperity Ptwy, Toronto, ON M1B 4G7",M1B4G7,43.663204,-79.33498
https://photos.zillowstatic.com/fp/76c76042344d67f1ecb467149dcc271d-p_e.jpg,https://www.zillow.com/homedetails/149-Lytton-Blvd-Toronto-ON-M4R-1L6/2062741428_zpid/,"149 Lytton Blvd, Toronto, ON M4R 1L6",M4R1L6,43.676327,-79.44347
https://photos.zillowstatic.com/fp/55347eaad89ec90c1bd162d166b7d351-p_e.jpg,https://www.zillow.com/homedetails/118-Yorkville-Ave-604-Toronto-ON-M5R-1H5/2071902122_zpid/,"118 Yorkville Ave #604, Toronto, ON M5R 1H5",M5R1H5,43.66617,-79.475464
https://photos.zillowstatic.com/fp/5fd7ae747a4b8f219391022bdeaed395-p_e.jpg,https://www.zillow.com/homedetails/90-Stadium-Rd-UNIT-1907-Toronto-ON-M5V-3W5/2086916475_zpid/,"90 Stadium Rd UNIT 1907, Toronto, ON M5V 3W5",M5V3W5,43.662136,-79.58729
https://photos.zillowstatic.com/fp/b748b4ccb7316019fabdb6091d9a4620-p_e.jpg,https://www.zillow.com/homedetails/5765-Yonge-St-503-Toronto-ON-M2M-4H9/2064132181_zpid/,"5765 Yonge St #503, Toronto, ON M2M 4H9",M2M4H9,43.64009,-79.3786
https://photos.zillowstatic.com/fp/4d0f5aec7952e38c1ad842222ed81e06-p_e.jpg,https://www.zillow.com/homedetails/10-Brin-Dr-TOWNHOUSE-Toronto-ON-M8X-1Y6/2069729466_zpid/,"10 Brin Dr #TOWNHOUSE, Toronto, ON M8X 1Y6",M8X1Y6,43.63151,-79.49114
https://photos.zillowstatic.com/fp/8af424e1e6731a4eaf74b69ac14124b2-p_e.jpg,https://www.zillow.com/homedetails/6-Sonic-Way-808-Toronto-ON-M3C-0P1/2062424646_zpid/,"6 Sonic Way #808, Toronto, ON M3C 0P1",M3C0P1,43.654354,-79.4632
https://photos.zillowstatic.com/fp/5298629cf5883fb35cb495ad01ff26f3-p_e.jpg,https://www.zillow.com/homedetails/84-Wineva-Ave-Toronto-ON-M4E-2T2/2063286612_zpid/,"84 Wineva Ave, Toronto, ON M4E 2T2",M4E2T2,43.676414,-79.32801
https://photos.zillowstatic.com/fp/36c8a181c44ca0c94e24025378e46d1e-p_e.jpg,https://www.zillow.com/homedetails/20-Berkindale-Dr-Toronto-ON-M2L-1Z5/2062786426_zpid/,"20 Berkindale Dr, Toronto, ON M2L 1Z5",M2L1Z5,43.660107,-79.3491
https://photos.zillowstatic.com/fp/4f28b19b988f66d95b5a9744d2ff178c-p_e.jpg,https://www.zillow.com/homedetails/8-Eaglewing-Ct-Toronto-ON-M1E-4M1/2062433084_zpid/,"8 Eaglewing Ct, Toronto, ON M1E 4M1",M1E4M1,43.609535,-79.49915
https://photos.zillowstatic.com/fp/8786726615e66ca6f64ae1f75c104c02-p_e.jpg,https://www.zillow.com/homedetails/67-Rathburn-Rd-Toronto-ON-M9A-1R4/2063157659_zpid/,"67 Rathburn Rd, Toronto, ON M9A 1R4",M9A1R4,43.684155,-79.3124
https://photos.zillowstatic.com/fp/2f208ca5ced5c5a4a2847bb319a27a44-p_e.jpg,https://www.zillow.com/homedetails/15-Grenville-St-4810-Toronto-ON-M4Y-0B9/2071894106_zpid/,"15 Grenville St #4810, Toronto, ON M4Y 0B9",M4Y0B9,43.667282,-79.50319
https://photos.zillowstatic.com/fp/39b3fa86a9173d13045d0fb63f2549b4-p_e.jpg,https://www.zillow.com/homedetails/29-Nelson-St-Toronto-ON-M1J-3K8/2062422381_zpid/,"29 Nelson St, Toronto, ON M1J 3K8",M1J3K8,43.73122,-79.46729
https://photos.zillowstatic.com/fp/a83ef43b6dbd985aeb25d6d538adbb92-p_e.jpg,https://www.zillow.com/homedetails/141-Kingsmount-Park-Rd-Toronto-ON-M4L-3L6/2062602696_zpid/,"141 Kingsmount Park Rd, Toronto, ON M4L 3L6",M4L3L6,43.664078,-79.44267
https://photos.zillowstatic.com/fp/c1b3d39a20db4acf38bdedac2cfba0f4-p_e.jpg,https://www.zillow.com/homedetails/249-Bicknell-Ave-Toronto-ON-M6M-4H2/2062424218_zpid/,"249 Bicknell Ave, Toronto, ON M6M 4H2",M6M4H2,43.706276,-79.231865
https://photos.zillowstatic.com/fp/1c6a2a9dcfd31474ba8bfd8c2f3d243e-p_e.jpg,https://www.zillow.com/homedetails/50-Grandravine-Dr-2-Toronto-ON-M3J-1B1/2062691622_zpid/,"50 Grandravine Dr #2, Toronto, ON M3J 1B1",M3J1B1,43.644257,-79.40589
https://photos.zillowstatic.com/fp/da16f16a79d61e5a0633844ab8ead585-p_e.jpg,https://www.zillow.com/homedetails/4673-Jane-St-713-Toronto-ON-M3N-2L1/2066776194_zpid/,"4673 Jane St #713, Toronto, ON M3N 2L1",M3N2L1,43.684193,-79.56104
"https://maps.googleapis.com/maps/api/staticmap?mobile=false&sensor=true&maptype=satellite&size=575x242&zoom=17&center=43.77824020385742,-79.41777038574219&key=AIzaSyBJsNQO5ZeG-XAbqqWLKwG08fWITSxg33w&signature=amcnHBXvJZNwlnmABJvW1wlrt34=",https://www.zillow.com/homedetails/503-Beecroft-Rd-306-Toronto-ON-M2N-0A2/2065798580_zpid/,"503 Beecroft Rd #306, Toronto, ON M2N 0A2",M2N0A2,43.76874,-79.21992
https://photos.zillowstatic.com/fp/6f25bb63e6f90a33505e877a0fb3069c-p_e.jpg,https://www.zillow.com/homedetails/1-Hickory-Tree-Rd-303-Toronto-ON-M9N-3W4/2062459079_zpid/,"1 Hickory Tree Rd #303, Toronto, ON M9N 3W4",M9N3W4,43.685246,-79.31057
https://photos.zillowstatic.com/fp/a64f5be10eff107f9f16a19902f6632c-p_e.jpg,https://www.zillow.com/homedetails/29-Berkindale-Dr-Toronto-ON-M2L-1Z7/2065404030_zpid/,"29 Berkindale Dr, Toronto, ON M2L 1Z7",M2L1Z7,43.691128,-79.26728
https://photos.zillowstatic.com/fp/b289fcd77e13d394f1fbdab905ff32cf-p_e.jpg,https://www.zillow.com/homedetails/5-Old-Sheppard-Ave-UNIT-1205-Toronto-ON-M2J-4K3/2070577711_zpid/,"5 Old Sheppard Ave UNIT 1205, Toronto, ON M2J 4K3",M2J4K3,43.638416,-79.46905
https://photos.zillowstatic.com/fp/5054ff73f8d4d937f516da379fff2aad-p_e.jpg,https://www.zillow.com/homedetails/82-Bellhaven-Rd-Toronto-ON-M4L-3J8/2062647960_zpid/,"82 Bellhaven Rd, Toronto, ON M4L 3J8",M4L3J8,43.72322,-79.37969
https://photos.zillowstatic.com/fp/f67af93116861ab1007da58a38302053-p_e.jpg,https://www.zillow.com/homedetails/778-Sheppard-Ave-W-501-Toronto-ON-M3H-6B7/2062459086_zpid/,"778 Sheppard Ave W #501, Toronto, ON M3H 6B7",M3H6B7,43.68797,-79.30724
https://photos.zillowstatic.com/fp/a9b242254c31a0a736e9039d221e32f9-p_e.jpg,https://www.zillow.com/homedetails/110-Marine-Parade-Dr-211-Toronto-ON-M8V-0B6/2062433083_zpid/,"110 Marine Parade Dr #211, Toronto, ON M8V 0B6",M8V0B6,43.765907,-79.25159
https://photos.zillowstatic.com/fp/c56f28b3d984d0cda6722df1bad41ca6-p_e.jpg,https://www.zillow.com/homedetails/3231-Eglinton-Ave-E-808B-Toronto-ON-M1J-3N5/2062990747_zpid/,"3231 Eglinton Ave E #808B, Toronto, ON M1J 3N5",M1J3N5,43.642803,-79.53989
https://photos.zillowstatic.com/fp/798af7a2e3e0726b73e86a3645d5a074-p_e.jpg,https://www.zillow.com/homedetails/26-Bellehaven-Cres-Toronto-ON-M1M-1H4/2062788685_zpid/,"26 Bellehaven Cres, Toronto, ON M1M 1H4",M1M1H4,43.75698,-79.32218
https://photos.zillowstatic.com/fp/cda8d2c3a36b0ab8dab1abba3fe79c07-p_e.jpg,https://www.zillow.com/homedetails/23-Kempsell-Cres-Toronto-ON-M2J-2Z6/2062428616_zpid/,"23 Kempsell Cres, Toronto, ON M2J 2Z6",M2J2Z6,43.70021,-79.44828
https://photos.zillowstatic.com/fp/d0f7668bff6ac762fc9f8f903fe75217-p_e.jpg,https://www.zillow.com/homedetails/566-Gladstone-Ave-Toronto-ON-M6H-3J2/2062952267_zpid/,"566 Gladstone Ave, Toronto, ON M6H 3J2",M6H3J2,43.751984,-79.187195
https://photos.zillowstatic.com/fp/e7ce4ba6b706942bd7ef127dff0aee8c-p_e.jpg,https://www.zillow.com/homedetails/57-Saint-Joseph-St-419-Toronto-ON-M5S-0C5/2062430979_zpid/,"57 Saint Joseph St #419, Toronto, ON M5S 0C5",M5S0C5,43.682426,-79.32169
https://photos.zillowstatic.com/fp/10975d97df7d870a32985b7f571e3454-p_e.jpg,https://www.zillow.com/homedetails/43-Kimbark-Blvd-Toronto-ON-M5N-2X6/2062473132_zpid/,"43 Kimbark Blvd, Toronto, ON M5N 2X6",M5N2X6,43.685455,-79.329384
"https://maps.googleapis.com/maps/api/staticmap?mobile=false&sensor=true&maptype=satellite&size=575x242&zoom=17&center=43.75569152832031,-79.181396484375&key=AIzaSyBJsNQO5ZeG-XAbqqWLKwG08fWITSxg33w&signature=ItpfIIZ2ZNN4zEXSxszcddJXRvg=",https://www.zillow.com/homedetails/58-Morningside-Ave-Toronto-ON-M1E-3C2/2062404957_zpid/,"58 Morningside Ave, Toronto, ON M1E 3C2",M1E3C2,43.685276,-79.33738
https://photos.zillowstatic.com/fp/86264ec1711e64715732bd89cb202916-p_e.jpg,https://www.zillow.com/homedetails/216-Woodville-Ave-Toronto-ON-M4J-2R7/2066381963_zpid/,"216 Woodville Ave, Toronto, ON M4J 2R7",M4J2R7,43.66923,-79.33309
https://photos.zillowstatic.com/fp/7cebff0ea15b45b0ad60d02f80b34379-p_e.jpg,https://www.zillow.com/homedetails/98-Saint-Hubert-Ave-Toronto-ON-M4J-3Z5/2070480629_zpid/,"98 Saint Hubert Ave, Toronto, ON M4J 3Z5",M4J3Z5,43.673412,-79.43883
https://photos.zillowstatic.com/fp/68761e8f4a3ca7c2d3e0a019f8bf61c0-p_e.jpg,https://www.zillow.com/homedetails/1-Tanvalley-Ct-Toronto-ON-M3B-1C5/2066451154_zpid/,"1 Tanvalley Ct, Toronto, ON M3B 1C5",M3B1C5,43.692135,-79.30904
https://photos.zillowstatic.com/fp/9be5506c3706135ad694963cef0e741f-p_e.jpg,https://www.zillow.com/homedetails/1201-Dovercourt-Rd-Toronto-ON-M6H-2Y1/2062524331_zpid/,"1201 Dovercourt Rd, Toronto, ON M6H 2Y1",M6H2Y1,43.831795,-79.23752
https://photos.zillowstatic.com/fp/4ad5677cfea817f13e65f2bebaefc103-p_e.jpg,https://www.zillow.com/homedetails/902-Woodbine-Ave-Toronto-ON-M4C-4B5/2078625977_zpid/,"902 Woodbine Ave, Toronto, ON M4C 4B5",M4C4B5,43.679546,-79.31227
https://photos.zillowstatic.com/fp/703b1533e76d3fad41370204421ed173-p_e.jpg,https://www.zillow.com/homedetails/163-Chipwood-Cres-Toronto-ON-M2J-3X6/2062589588_zpid/,"163 Chipwood Cres, Toronto, ON M2J 3X6",M2J3X6,43.764717,-79.26342
